instanceid,date,dayofweek,hour,weather,address_x,latitude_x,longitude_x
00024F2D-B486-40A4-B4EB-92F237EE429B,2023-05-12,FRI,16,1 - CLEAR,1XX E MCMILLAN ST,39.126011,-84.504279
0005E03C-BF51-4294-8AE7-858134C35771,2023-12-10,SUN,21,1 - CLEAR,X E 4TH ST,39.099791,-84.512371
0006F3CA-9699-4859-97F2-24E0DDC301A1,2023-04-22,SAT,16,1 - CLEAR,10XX SUNSET AV,39.112541,-84.584871
0008CEE4-39FC-426D-ABD9-179E770694FF,2023-03-08,WED,10,1 - CLEAR,3XX W KING DR,39.134877,-84.517925
000A5739-1E3A-4648-AF13-671BC9060716,2023-04-20,THU,18,1 - CLEAR,45XX KIRBY AV,39.171405,-84.546891
0016194B-0070-433C-891C-F6DEAB67400D,2023-11-22,WED,12,2 - CLOUDY,23XX ST JAMES AV,39.123311,-84.488791
001A28EF-335A-4131-8B86-A709EE413879,2023-04-14,FRI,17,1 - CLEAR,50XX PADDOCK RD,39.177944,-84.478651
002284AA-246B-44AC-937E-0AB5F8162DC4,2023-03-08,WED,8,1 - CLEAR,31XX HARVEY AV,39.138066,-84.501228
0022E708-8011-4417-8573-D1B19893D9B8,2023-01-17,TUE,15,1 - CLEAR,60XX MONTGOMERY RD,39.181591,-84.428551
0028919D-6366-47D4-AD2D-D7F07206063B,2023-09-06,WED,16,2 - CLOUDY,26XX GILBERT AV,39.129647,-84.488854
0031E2FF-B2FF-4568-A9F4-2609F8CC3F47,2023-06-20,TUE,17,2 - CLOUDY,75XX READING RD,39.199236,-84.457782
0035ACE4-5ADA-4F1D-935E-09EA76E1EC4C,2023-02-27,MON,18,1 - CLEAR,20XX FERGUSON RD,39.123925,-84.601745
0035CA0C-9531-4F2A-B7C7-3063EE3D86D6,2023-06-12,SAT,13,1 - CLEAR,10XX WALNUT ST,39.106231,-84.513131
003B00EB-BF7A-4307-88CF-6BA1C093C8A6,2023-08-04,FRI,17,1 - CLEAR,12XX W NORTH BEND RD,39.204386,-84.561463
003DFCFE-3561-4C93-A576-0F134A37EB1B,2023-05-03,WED,16,1 - CLEAR,N I75 AT 4-0 MM,39.145201,-84.537631
0043C3CD-1BF4-4272-9599-C2259C357818,2023-12-05,TUE,18,4 - RAIN,N I75 AT 8-8 MM,39.188264,-84.481409
00472091-3C1D-4B9E-9AE9-AA4BC51E12E4,2023-09-11,MON,21,1 - CLEAR,80XX EVERGREEN RIDGE DR,39.129539,-84.292542
00479A6B-86C1-4816-A2CE-A819AE3FC227,2023-08-03,THU,13,1 - CLEAR,3XX DIXMYTH AV,39.140138,-84.521558
004E9852-8B76-452E-BADA-EF15D9BA4216,2023-08-25,FRI,11,1 - CLEAR,36XX MADISON RD,39.159323,-84.420106
005ED5BA-FE71-497C-A049-F2CEB9FF4DD3,2023-05-10,WED,7,1 - CLEAR,16XX HARRISON AV,39.126097,-84.548456
005F951D-1BBD-4F2E-ADCC-BC9EE47407D4,2023-07-07,FRI,17,1 - CLEAR,27XX RIVERSIDE DR,39.122151,-84.456261
0060DDE0-6FB3-4C61-9BAD-71C987A878B5,2023-07-27,THU,17,4 - RAIN,1XX E KING DR,39.136261,-84.506551
0062887F-F3AB-4DE6-8FDC-C04346075E3C,2023-08-01,TUE,16,1 - CLEAR,44XX COLERAIN AV,39.165301,-84.551254
00639859-F013-41CE-BB09-1BBCF2D558F3,2023-12-23,SAT,14,1 - CLEAR,34XX ALAMO AV,39.161841,-84.422601
0067C8F2-20B0-41FD-AA58-19512E1430B3,2023-12-15,FRI,22,1 - CLEAR,47XX SPRING GROVE AV,39.163943,-84.516095000000007
0067E65E-12E9-41A1-8B49-CEF98A076DFE,2023-08-06,SUN,0,1 - CLEAR,44XX EASTERN AV,39.114135,-84.422406
0069207A-B86C-43BB-8E66-2D422C1A2038,2023-01-23,SUN,11,6 - SNOW,21XX BEECHMONT AV,39.092091,-84.385751
006F9028-B49E-4B52-BE45-667EE8BEEBBB,2023-12-07,THU,15,1 - CLEAR,26XX JEFFERSON AV,39.128745,-84.510578
007D79DE-4028-4518-9361-35C84BC59F94,2023-03-26,SUN,0,1 - CLEAR,18XX W NORTH BEND,39.203981,-84.555415
00859252-A62E-4413-A87E-0B1D1F87C238,2023-04-21,FRI,19,4 - RAIN,22XX QUEEN CITY AV,39.129411,-84.576438
00879F86-D39D-4EF3-ACFB-BE34FDCA45B0,2023-06-10,SAT,19,1 - CLEAR,34XX COLUMBIA PY,39.119146,-84.440143
0089C0FD-6D32-4720-8541-B1183E6E6A2C,2023-11-16,THU,21,1 - CLEAR,77XX GREENLAND PL,39.202713,-84.459577
008A49F3-9ADD-4F41-ABCF-8A1284054C91,2023-01-05,THU,18,1 - CLEAR,0.X NB I75,39.103227,-84.499971
0090D74A-F45D-4D60-BC56-FB8E94C7AC03,2023-04-17,MON,18,1 - CLEAR,S I75 AT 2-5 MM,39.125026,-84.534943
0094192E-C610-4746-A7EE-3A26AE51DFFA,2023-11-23,THU,18,1 - CLEAR,S I-75 AT 1.08 M.M,39.136369,-84.532633
0096F687-7DD8-4473-9300-C3BCC8408793,2023-10-03,TUE,7,1 - CLEAR,76XX ANTHONY WAYNE AV,39.198489,-84.473882
0098024C-33C6-45FA-8886-6C2C2F4F44DB,2023-04-28,FRI,9,1 - CLEAR,61XX GLENWAY AV,39.142261,-84.620981
009A7915-345B-4CA2-86DD-CFE369D22747,2023-09-14,THU,14,1 - CLEAR,N I471 AT 5-1 MM,39.102194,-84.498682
00A3BCB8-7943-437D-B7CF-44EBF1B3340B,2023-10-16,MON,8,2 - CLOUDY,33XX BOUDINOT AV,39.148601,-84.602471
00A520CE-FD03-4888-8A3F-BAE17BAE6212,2023-10-05,THU,15,1 - CLEAR,39XX GLENWAY AV,39.113261,-84.577891
00AAD188-53D5-4B2C-970D-2119D152E9B1,2023-11-12,SUN,21,1 - CLEAR,30XX WESTWOOD NORTHERN BV,39.158921,-84.597733
00AD0DBE-E8CD-44DD-A3C0-164F199A1809,2023-09-20,WED,17,1 - CLEAR,W 562 AT 3-0 MM,39.173639,-84.484361
00AE97C0-F705-4836-9F7D-21038DEDBFEC,2023-03-10,FRI,9,2 - CLOUDY,16XX CENTRAL PY,39.112633,-84.520391
00B3048A-1FCA-47AF-88AE-FF8C88038C3B,2023-05-05,FRI,15,1 - CLEAR,18XX DANA AV,39.145391,-84.465821
00B32BCF-88DB-4E81-B8A9-D81BBC8210A5,2023-02-17,THU,11,1 - CLEAR,41XX CLIFTON AV,39.164541,-84.516051
00B66335-BA99-414B-978C-2437E2395955,2023-11-01,WED,7,1 - CLEAR,28XX QUEEN CITY AV,39.134046,-84.595313
00BA757A-C265-4102-B86F-BB27002D7CBD,2023-03-31,FRI,11,4 - RAIN,5XX W LIBERTY ST,39.114731,-84.525741
00BAFE71-09A3-4DE0-98F5-A95A5BD5012C,2023-05-16,TUE,17,2 - CLOUDY,N I71 AT 0-7 MM,39.097561,-84.515743
00BE0E6C-3A0C-4415-89F0-30D291AC87EE,2023-11-04,SAT,2,1 - CLEAR,54XX COLERAIN AV,39.189359,-84.568353
00BF68E6-82F2-4222-B756-9BCAD1B06E9A,2023-10-09,MON,11,1 - CLEAR,28XX LANGDON FARM RD,39.181251,-84.436855
00BF824B-DA46-4E47-AFD2-25F7A79BA8F4,2023-05-11,THU,17,1 - CLEAR,16XX SUMMIT RD,39.201916,-84.459999
00C1F5A2-59DC-408A-8031-B034FEA2B16F,2023-05-13,SAT,10,1 - CLEAR,46XX READING RD,39.168475,-84.470011
00CB318E-B0A7-4D5B-A343-E797D5497A23,2023-04-19,WED,13,1 - CLEAR,20XX CENTRAL PY,39.124676,-84.538178
00CEBC17-641F-4ABC-8FDF-214C0485A5F4,2023-04-20,THU,0,1 - CLEAR,S I-75 AT 1.0 MM,39.128046,-84.534711
00D28A51-F1F4-4B8F-AB81-ABC0D981E9AD,2023-03-04,SAT,13,1 - CLEAR,N I75 AT 8.3,39.190705,-84.479658
00D769E3-6411-4F2B-A4E5-E79AAFE6A12A,2023-11-30,THU,16,1 - CLEAR,19XX QUEBEC RD,39.108411,-84.570941
00D7CBE3-A4AE-49B3-BB19-C0C3CE1688B9,2023-02-17,FRI,16,2 - CLOUDY,6XX STATE AV,39.100946,-84.554666
00DD2948-40F7-4EB4-A55E-0FF456AC2A62,2023-09-21,THU,15,1 - CLEAR,39XX EDWARDS RD,39.152455,-84.444371
00DF9608-E092-4A30-8D31-BE67D1F5203C,2023-01-26,THU,21,1 - CLEAR,31XX BOUDINOT,39.140859,-84.604019
00E0D000-BB95-4436-B14E-A2E7FE5C0C51,2023-12-14,THU,6,1 - CLEAR,42XX RED BANK RD,39.151471,-84.403671
00E1CB97-760F-40ED-BEE7-00C269C81C8C,2023-12-01,FRI,14,2 - CLOUDY,21XX GRAND AV,39.121784,-84.553491
00E25884-EE09-4878-9315-DCA1833E893B,2023-08-27,SUN,22,1 - CLEAR,21XX MONTANA AV,39.158571,-84.568081
00E2F303-2D07-4F3D-BC2C-672EA0845192,2023-11-10,FRI,16,1 - CLEAR,S I71 AT 0-6 MM,39.098155,-84.517964
00E42F51-340F-4303-A500-6BC9207C26DD,2023-02-16,THU,13,2 - CLOUDY,31XX VINE ST,39.134667,-84.50822
00E6A5C8-164D-4DE3-A3FB-B94E2DC7F03D,2023-06-14,WED,9,1 - CLEAR,11XX CORONADO AV,39.115718,-84.601911
00E7BE12-794F-46D3-AA7B-9E369EA47D22,2023-05-25,THU,18,1 - CLEAR,48XX STEWART AV,39.158731,-84.398323
00EDC0E2-C27E-41D8-B8B2-F9FD4C7D9F09,2023-01-15,SUN,9,1 - CLEAR,31XX LINWOOD AV,39.131041,-84.430819
00F075C6-DEB1-40C9-BE91-CAE1066B4B15,2023-08-28,SUN,10,99 - OTHER/UNKNOWN,7XX PLUM ST,39.102812,-84.517777
00F1AD74-86A6-4617-89A2-62147CBD614A,2023-11-12,SUN,1,1 - CLEAR,5XX READING RD,39.111223,-84.504542
00F7761E-59B3-4FD8-9248-5DF8CD2CA70F,2023-01-29,SUN,11,2 - CLOUDY,7XX COLUMBIA PY,39.118901,-84.481741
00F78EAF-B8AE-41DA-8D59-3FB1BD5BDE26,2023-08-16,WED,15,1 - CLEAR,28XX WOODBURN AV,39.130349,-84.477511
00F85071-7F51-4FCA-902E-78F6E446AB2E,2023-03-16,THU,19,4 - RAIN,74XX PADDOCK RD,39.196032,-84.475919
00FC07CA-9C29-46FD-966B-BA1F2B237876,2023-12-10,SUN,16,1 - CLEAR,7XX FREEMAN AV,39.103291,-84.532441
00FD1E1A-4669-4334-BBB9-BEA994DDC33B,2023-07-21,FRI,16,1 - CLEAR,36XX WASHINGTON AV,39.148375,-84.495321
0103F82D-0A3E-4331-96F5-72EFD592E82D,2023-12-01,FRI,7,4 - RAIN,S I75 AT 9-4 MM,39.163557,-84.509489
0106B93E-D89F-4614-99DA-4486D9689290,2023-09-09,SAT,20,1 - CLEAR,N I75 AT 5-9 MM,39.161469,-84.518513
01142D29-15F9-481F-95A2-17B2D17E1559,2023-04-20,THU,15,1 - CLEAR,11XX W 6TH ST,39.100863,-84.530661
01147878-F0D2-4EDF-BD0E-CCF2BFFCBA8D,2023-07-24,MON,11,1 - CLEAR,64XX BEECHMONT AV,39.087411,-84.381081
0124CA29-ED56-43B0-B5BF-D8553A00042D,2023-09-27,WED,9,4 - RAIN,N I75 AT 0-5 MM,39.100903,-84.522628
0125374E-6E5B-445F-B3CD-779A849B8F29,2023-03-25,SAT,5,4 - RAIN,83XX ANTHONY WAYNE AV,39.215016,-84.462873
0137EC6B-5A6C-4A23-9A5D-8A9FA25963F7,2023-08-04,FRI,21,1 - CLEAR,N I71 AT 8-1 MM,39.164551,-84.428201
013CE5D3-770F-4A7C-ADDE-6A678FA741A1,2023-10-28,SAT,22,4 - RAIN,32XX LINWOOD AV,39.127809,-84.407148
013DD85F-B297-44D8-BB1C-C886B43D27EE,2023-12-23,SAT,13,4 - RAIN,42XX RIDGE AV,39.154746,-84.421938
013F46A7-E9EE-4C14-94BE-5191D86867BB,2023-04-28,FRI,2,4 - RAIN,33XX GLENWAY AV,39.112436,-84.560008
01400F38-B938-4D05-87DF-6930AA0B1DE1,2023-05-19,FRI,9,1 - CLEAR,26XX ERIE AV,39.140431,-84.443959
0140D2B9-C4B6-47B6-982E-DF8BB0F4A840,2023-06-06,TUE,22,4 - RAIN,42XX SPRING GROVE AV,39.160155,-84.532391
01419E5D-905A-4F96-9DE8-0CBB3B143D9C,2023-08-30,WED,18,1 - CLEAR,33XX BURNET AV,39.13972,-84.50221
01453931-8CFE-4B6E-95B8-5FCD11231BFF,2023-08-18,FRI,16,1 - CLEAR,N I71 AT 0-9 MM,39.098625,-84.510411
01479B33-3940-40C8-AA2F-5D3F1527CD92,2023-03-21,TUE,19,1 - CLEAR,5XX DERRICK TURNBOW,39.110461,-84.527141
0147DB5B-6BC3-4314-8574-06330BAD1851,2023-09-06,WED,21,1 - CLEAR,35XX MONTGOMERY RD,39.141718,-84.470707
014D019D-6C11-4FB7-A3E3-0A62C9E80FDC,2023-10-14,SAT,7,4 - RAIN,10XX GRAND AV,39.112081,-84.560861
014D38D4-9C83-4EBB-BDE8-FFFC3D5A0BC4,2023-06-05,MON,14,1 - CLEAR,W I74 AT 19-0 MM,39.137471,-84.537231
015849E1-997E-487B-AE3B-BFD0A65BD7C9,2023-09-29,FRI,6,"3 - FOG, SMOG, SMOKE",23XX READING RD,39.123646,-84.484278
015A64A1-1A26-4C0E-84D0-487A434971B6,2023-12-10,SUN,14,99 - OTHER/UNKNOWN,15XX DIXMONT AV,39.137365,-84.478022
0160EC67-6953-4A95-94A3-9DED02E626D1,2023-08-03,THU,16,1 - CLEAR,S I71 AT 0-4 MM,39.098247,-84.520159
0166438B-BF30-4EE8-8B83-BF9F53C8AAE4,2023-04-12,TUE,9,1 - CLEAR,44XX W MITCHELL,39.166705,-84.514424
01670EDA-4C87-4E5B-9C8B-46DE6EE6626A,2023-11-20,MON,17,2 - CLOUDY,N I75 AT 0-8 MM,39.153687,-84.538994
01679A4A-DD58-4801-9A5E-379DDFD31066,2023-01-04,WED,15,1 - CLEAR,37XX EASTERN HILLS LN,39.143374,-84.424234
016F1590-555E-4AED-8611-EC95E31F1D9A,2023-05-28,FRI,18,1 - CLEAR,8XX DELTA AV,39.128018,-84.430887
016F56E1-D571-4DC8-B04F-E922E2EF0F27,2023-07-12,WED,14,1 - CLEAR,26XX KATHLEEN CT,39.192761,-84.579351
01744EDD-56DB-41B2-9C91-E0BC8EDEE09F,2023-09-04,MON,11,1 - CLEAR,4XX WILLIAM HOWARD TAFT RD,39.129937,-84.501119
0179546D-9835-4C45-9D96-AFDD5C48C23C,2023-10-06,MON,15,99 - OTHER/UNKNOWN,34XX EDWARDS RD,39.138118,-84.445093
01865443-EE80-4A40-BEB1-2C16B8A8C252,2023-03-27,MON,10,4 - RAIN,16XX READING RD,39.114121,-84.501546
018DF79F-20DB-433F-AC60-B36ECB242809,2023-09-11,MON,15,2 - CLOUDY,S I71 AT 7-7 MM,39.164219,-84.434706
018FAEDC-6D89-40F7-8D0C-36FC4B584F09,2023-03-06,MON,18,1 - CLEAR,24XX MADISON RD,39.139114,-84.452405
0196B6F7-E37E-4B7F-83E2-B3104F561C53,2023-07-13,THU,9,1 - CLEAR,17XX HARRISON AV,39.138298,-84.578443
019763C5-CED8-4029-A1ED-089BB8A8A306,2023-02-03,FRI,14,1 - CLEAR,26XX WESTWOOD NORTHERN BV,39.148605,-84.585157
019ED1D5-FAAA-42D5-9BC6-ECAAAFFA432D,2023-06-29,THU,9,"3 - FOG, SMOG, SMOKE",12XX WESTERN HILLS VIADUCT,39.123918,-84.534594
01A3EC10-07A7-49CB-A8FB-A1B1F8EBC14F,2023-08-14,MON,22,1 - CLEAR,24XX QUEEN CITY AV,39.128395,-84.580804
01AFC379-3439-48B7-9E6F-9D74E9CBBFC0,2023-11-16,THU,18,1 - CLEAR,8XX BROADWAY ST,39.10561,-84.50624
01BB927C-83FC-4C64-BEE0-A3EBA0D63D66,2023-05-01,MON,17,4 - RAIN,XX WILLIAM HOWARD TAFT RD,39.128241,-84.509355
01BBE9A9-EB47-408E-9417-D1C6F918075C,2023-04-05,WED,15,2 - CLOUDY,22XX MONTANA AV,39.157875,-84.568233
01BF7BFB-525B-4AB3-B2AE-8C7F25F7175C,2023-01-18,WED,8,2 - CLOUDY,35XX MONTGOMERY RD,39.141721,-84.471797
01C5F721-4706-4D71-8118-C8C1BCFDC46B,2023-11-26,SUN,0,2 - CLOUDY,26XX JEFFERSON AV,39.130175,-84.511478
01C884BE-9985-4F6A-8E14-BF39F7A99D79,2023-01-31,TUE,19,1 - CLEAR,20XX FARADAY RD,39.153184,-84.556305
01CBEC13-9ED1-4F9D-989B-461789C9E581,2023-07-11,TUE,17,1 - CLEAR,30XX EDEN AV,39.134511,-84.506211
01D0D922-C18A-4AA1-9CEC-D1611E61E695,2023-05-20,SAT,18,1 - CLEAR,E I74 AT 19-3 MM,39.151166,-84.539505
01D926D4-1C8F-4074-95A0-F9E687ACD481,2023-09-11,MON,17,1 - CLEAR,S I75 AT 5-3 MM,39.161833,-84.522291
01DDD323-DE51-4985-90DA-96BA0EA76AB4,2023-08-28,MON,19,1 - CLEAR,53XX TOMPKINS AV,39.156775,-84.401625
01E65083-0FE7-4DE7-B3C2-28C3B9530054,2023-08-29,TUE,10,1 - CLEAR,73XX VINE ST,39.195933,-84.477461
01F53328-45D7-4AA5-835C-D0930E7909CA,2023-11-27,MON,17,1 - CLEAR,37XX APPLEGATE AV,39.149251,-84.612411
01F73B28-4952-42EC-8763-784A7D058755,2023-12-25,MON,4,1 - CLEAR,7XX DELTA AV,39.125884,-84.434535
01F765DE-814D-4BB3-8B56-7165F7657213,2023-06-11,SUN,21,4 - RAIN,59XX GLENWAY AV,39.141568,-84.618135
01F8BFBD-3100-463D-AF86-2AC6827FF0E4,2023-05-10,WED,12,1 - CLEAR,49XX GLENWAY AV,39.121451,-84.601587
01F9511F-28EA-4396-A164-03193196E38D,2023-05-09,TUE,19,1 - CLEAR,21XX QUEEN CITY AV,39.127968,-84.571379
02018BD4-7A4B-4C6E-A1E6-66F2642AB65B,2023-10-27,FRI,8,4 - RAIN,17XX MADISON RD,39.131166,-84.474386
0202F500-E977-4E91-8482-62AD84AE5918,2023-02-16,THU,15,1 - CLEAR,1XX E COURT ST,39.108038,-84.516956
020BB90E-E0AC-4045-8C41-2466CAA9ECA2,2023-12-26,TUE,10,4 - RAIN,S I71 AT 1-2 MM,39.115044,-84.501023
020C118F-71A6-4BFD-9E88-37762C599E87,2023-11-06,MON,17,1 - CLEAR,2XX PEETE ST,39.114129,-84.513574
020F01D4-7F2A-4B2F-9B54-18C493346C86,2023-01-19,THU,10,1 - CLEAR,60XX GLENWAY AV,39.142841,-84.619883
02160356-69E9-41DB-B490-203526B8FB25,2023-03-05,SUN,0,1 - CLEAR,13XX MAIN ST,39.109785,-84.511577
02202739-6406-481F-92CD-72F162466284,2023-10-21,SAT,13,2 - CLOUDY,XX E MCMILLAN ST,39.127501,-84.511571
02299ECB-9F67-496F-847E-BA021F1299FC,2023-06-26,MON,20,1 - CLEAR,13XX W NORTH BEND RD,39.202213,-84.540281
0229D8A3-282A-4525-A935-AA52C6562476,2023-12-17,SUN,11,2 - CLOUDY,S I71 AT 0-8 MM,39.099521,-84.511962
022CD9FE-3D44-4953-A945-947EA5D1534E,2023-02-19,SAT,12,1 - CLEAR,2XX W MITCHELL AV,39.165321,-84.512491
02330928-DBC2-4583-81CA-08110693DAD8,2023-05-14,SUN,1,1 - CLEAR,30XX MATHERS ST,39.13637,-84.48588
023FC072-E4E7-423E-A739-0E73F4527410,2023-02-01,WED,15,1 - CLEAR,N I71 AT 1-0 MM,39.099451,-84.508775
02403B4F-DB6C-4649-ADCA-C531A6D48A5F,2023-08-21,MON,17,1 - CLEAR,19XX STATE AV,39.122459,-84.544378
0241172A-AE0E-479A-B622-72C46D424C14,2023-10-29,SAT,8,4 - RAIN,16XX HARRISON AV,39.126437,-84.549756
0244B2A9-F876-4DF9-9E6D-888B5B936195,2023-05-19,FRI,0,1 - CLEAR,17XX WESTWOOD AV,39.124761,-84.552941
0250D57E-4534-41C6-ACDE-BF71BC983671,2023-03-30,THU,13,1 - CLEAR,40XX SPRING GROVE AV,39.157666,-84.538683
025600AA-9F31-4C45-BEF6-E40A394E6092,2023-03-15,WED,15,1 - CLEAR,N I75 AT 2-3 MM,39.122598000000004,-84.535023
026C50A5-F25F-4AD2-8E3B-83D25E1875CA,2023-09-08,FRI,2,1 - CLEAR,23XX FAIRVIEW AV,39.125353,-84.528516
027B5529-30A7-4740-AD5B-4B02D960BDED,2023-07-22,FRI,9,1 - CLEAR,40XX LEESBURG LN,39.152261,-84.412591
028095F5-0776-4331-8F47-16D70D329189,2023-09-11,MON,19,1 - CLEAR,2XX E UNIVERSITY AV,39.132951,-84.507231
0281341F-35FB-488E-990C-3313656FCD1C,2023-02-02,THU,8,1 - CLEAR,13XX MYRTLE AV,39.128608,-84.479458
0281EB5D-54BE-4DB2-B3AA-46D5C73FED96,2023-04-08,SAT,14,1 - CLEAR,32XX WERK RD,39.140321,-84.613821
0286ED97-3548-4AC5-99CE-C7EBC3F3373F,2023-05-26,SUN,18,1 - CLEAR,78XX STILLWELL RD,39.204501,-84.456691
028B18C3-D4B0-4A05-B0ED-FD80CC39A9AF,2023-09-08,FRI,14,1 - CLEAR,26XX KEMPER LN,39.128996,-84.489237
029185D3-F079-4C65-ACFB-A0B47ACCE365,2023-11-23,THU,21,1 - CLEAR,15XX WEST FORK RD,39.163375,-84.552035
02992222-8818-4D1A-B032-D4D66E74867A,2023-07-29,SAT,17,1 - CLEAR,7XX ELBERON AV,39.105217,-84.566147
029949BF-C996-4883-A850-1B4B01DB90B8,2023-04-29,SAT,18,1 - CLEAR,XX W MCMILLAN ST,39.127783,-84.512951
0299A800-EA2F-4C4C-8E77-6922FDA25B26,2023-08-09,WED,20,4 - RAIN,11XX RACE ST,39.106333,-84.516381
029EAE11-BA77-4B21-8D72-08E60307608A,2023-08-13,SUN,19,1 - CLEAR,73XX VINE ST,39.197471,-84.478435
029FA01F-3113-4F01-9B21-8819EDA44240,2023-05-06,SAT,11,1 - CLEAR,61XX HAMILTON AV,39.203436,-84.547133
02A01D2F-8A9A-43E8-827F-3FFF959AB56F,2023-12-11,MON,15,1 - CLEAR,8XX HOPPLE ST,39.13696,-84.54108
02A820EB-BB0E-4736-ACB7-427026827E19,2023-01-30,MON,13,1 - CLEAR,13XX MONMOUTH AV,39.142701,-84.536941
02B0C9D3-0CFD-491B-8BE4-5BC4E50DFFC3,2023-04-04,TUE,14,1 - CLEAR,70XX GLENMEADOW LN,39.190721,-84.468511
02BD5B22-00C2-443B-889F-4E95D6D4D19D,2023-10-15,SUN,16,1 - CLEAR,64XX HAMILTON AV,39.208706,-84.549081
02C82B70-C3E5-42BD-ADC0-951298B66C59,2023-03-27,MON,3,2 - CLOUDY,I7X EX 2-0,39.174681,-84.525457
02CD0C4E-2BF4-4605-A083-40F78AF7F5BC,2023-09-05,MON,10,1 - CLEAR,61XX GLENWAY AV,39.145145,-84.622026
02D0B3E7-02AA-4460-9C8B-BF73B2C8A849,2023-06-02,FRI,13,1 - CLEAR,7XX DUTCH COLONY DR,39.189811,-84.516661
02D0CA23-4047-419F-A64D-88606C9763BF,2023-04-10,MON,10,1 - CLEAR,XX E DANIELS ST,39.132537,-84.509639
02D839A5-6E3D-4516-B482-D6281987D224,2023-06-17,SAT,12,1 - CLEAR,62XX CORBLY ST,39.094581,-84.385671
02D853C6-0930-4786-8042-0E52B762DEF5,2023-10-30,MON,2,4 - RAIN,14XX HARRISON AV,39.124551,-84.544571
02DD21E6-314E-4D89-90B9-427C99C48F53,2023-10-20,FRI,12,2 - CLOUDY,N I71 AT 8-1 MM,39.166791,-84.426291
02E07DE7-7149-4D09-9AC4-65392E80C174,2023-08-18,FRI,19,1 - CLEAR,N I75 AT 3-6 MM,39.141001,-84.534834
02E2F891-92AE-4CCE-9E67-267682812F36,2023-06-13,TUE,20,2 - CLOUDY,3XX BROADWAY ST,39.100512,-84.505677
02E779BA-ED54-4764-B6F1-D7DA0171424A,2023-08-25,FRI,7,1 - CLEAR,45XX KIRBY AV,39.172082,-84.546721
02F49DF0-995E-49A6-9D67-92664BF09C51,2023-04-06,THU,18,1 - CLEAR,58XX CHANDLER ST,39.164301,-84.393821
02F5DA51-3969-4900-8D45-3BC0DF70AD75,2023-02-26,SUN,17,1 - CLEAR,25XX QUEEN CITY AV,39.109136,-84.562596
03006903-3288-47B9-97AC-274340FA1BF9,2023-12-31,SUN,17,4 - RAIN,56XX WINTON RD,39.192101,-84.523588
03073755-5F35-4D24-9FFB-0758BBCD1156,2023-07-24,MON,10,2 - CLOUDY,16XX READING RD,39.113565,-84.503001
03093441-BED1-462B-8CD4-0EAC36D6A71A,2023-06-02,FRI,14,1 - CLEAR,N I75 AT 4-6 MM,39.152619,-84.540078
030A0432-1872-4141-99EB-DFC82FA9274A,2023-03-07,TUE,15,1 - CLEAR,X W CORRY ST,39.128568,-84.509914
030A8931-BFBA-4A06-84F7-34EA4F7CE814,2023-11-26,SUN,17,1 - CLEAR,30XX RAMONA AV,39.142656,-84.602263
0311D233-BA24-4547-9C09-714AC0BC86BD,2023-04-07,FRI,23,1 - CLEAR,33XX JEFFERSON AV,39.140581,-84.513217
0315B707-59F2-4A94-A41A-5969225ADB1B,2023-05-29,MON,6,1 - CLEAR,N I75 AT 6-5 MM,39.163188,-84.507661
031F8F0A-A2BC-4EBC-BD56-EEFA02268A8D,2023-07-04,TUE,11,1 - CLEAR,6XX BERKSHIRE LN,39.145711,-84.535166
0326B8AC-E475-4BC5-961C-6A27ACBDE970,2023-07-23,SUN,19,1 - CLEAR,36XX VICTORY PY,39.147949,-84.478495
03340ED7-918C-4C05-9A40-E834BD51E3FA,2023-03-13,SUN,0,2 - CLOUDY,17XX BERKLEY AV,39.171642,-84.465357
0335133F-0A4D-4AB1-A79B-EF9A3EFFB62B,2023-05-19,FRI,19,1 - CLEAR,17XX GILBERT AV,39.114201,-84.498479
03392C63-FBF5-4F01-A3ED-BAA7EE2D0AF5,2023-06-25,SUN,16,2 - CLOUDY,29XX COLERAIN AV,39.137671,-84.536941
03395F3E-71C7-483D-8BF7-C2A3210DA8E6,2023-02-10,FRI,19,1 - CLEAR,5XX TWIN HILLS RIDGE DR,39.068717,-84.406431
033A07BE-C4EF-40BC-8A8F-9FC21D3B435C,2023-08-07,MON,17,2 - CLOUDY,N I75 AT 2-0 MM,39.119716,-84.534382
034017FE-8F48-4D7C-86E6-259F49316B79,2023-01-22,SUN,8,6 - SNOW,53XX HAMILTON AV,39.185673,-84.544966
0346DFC4-87F1-4152-A89A-72B5E6F6F911,2023-05-17,WED,10,1 - CLEAR,S I75 AT 3-2 MM,39.135459,-84.532402
034BF951-BD5A-46D3-B03F-6221302202B0,2023-02-07,TUE,8,2 - CLOUDY,64XX DEVONWOOD DR,39.208311,-84.543521
034D0D5E-4FBD-4E3D-B423-673E77345787,2023-02-17,FRI,3,1 - CLEAR,57XX GLENWAY AV,39.136287,-84.612772
034F33A2-BD82-4A1F-BC4A-3A8BBEF1F9A5,2023-07-14,SAT,14,1 - CLEAR,61XX GLENWAY AV,39.142681,-84.619751
03521F9E-FB38-4989-AA05-A729174B8A48,2023-04-13,THU,17,1 - CLEAR,45XX COLERAIN AV,39.167431,-84.553361
035388B3-AFAC-4504-8934-F272E07D64F2,2023-11-22,WED,8,2 - CLOUDY,17XX WESTWOOD AV,39.12582,-84.55473
03551498-6DC9-4E5A-8A52-E6F05A6A6A6D,2023-02-11,SAT,0,1 - CLEAR,58XX RIDGE AV,39.177601,-84.428381
03570461-53FF-4CA1-BE1C-2B8BC6D06038,2023-03-24,FRI,10,4 - RAIN,26XX READING RD,39.127727,-84.498166
0362C597-A378-4EB0-99DA-FEE270CC02E8,2023-01-17,TUE,7,2 - CLOUDY,5XX E FORT WASHINGTON WAY,39.171446,-84.375091
03661B5B-E0B5-4374-90F8-A4742EF8D907,2023-07-18,TUE,20,1 - CLEAR,12XX CENTRAL PY,39.108087,-84.519285
036A6E5C-7CA6-468D-9D0E-59D7B1516C11,2023-06-04,SUN,0,1 - CLEAR,9XX WALNUT ST,39.105241,-84.512805
036C040E-E37C-40A7-99D4-23633525C8D2,2023-12-06,WED,15,1 - CLEAR,S I71 AT 2-6 MM,39.119021,-84.499803
036C47BB-8E82-4BBA-A1B6-45921FAFB69F,2023-08-05,SAT,20,1 - CLEAR,36XX EDWARDS RD,39.145141,-84.442341
03728FB4-0E9C-4305-AFD1-9BF4FBAFFBCD,2023-02-23,THU,14,1 - CLEAR,15XX LINN ST,39.112441,-84.527851
03757EB1-191D-4E85-B9CD-F581FEA93626,2023-11-15,WED,18,1 - CLEAR,S I75 AT 5-7 MM,39.161235,-84.520951
037B5116-744C-441E-8275-8F158B808BBE,2023-12-09,SAT,12,4 - RAIN,37XX BEEKMAN ST,39.155391,-84.549971
037ED0E7-DA8B-4BDC-9604-5AF6165D81B9,2023-12-21,THU,13,2 - CLOUDY,15XX BLUE ROCK ST,39.160048,-84.539031
03811B83-E059-4960-9448-3DB4DAEB90C8,2023-06-23,FRI,9,2 - CLOUDY,S I71 AT 4-1 MM,39.139095,-84.487712
038F8632-0C7F-4D03-9AFF-11CA7868EC4F,2023-03-09,THU,22,4 - RAIN,XX E CENTRAL PY,39.107111,-84.511931
03929445-0AE9-4EB7-84F9-F2182AED781F,2023-09-06,WED,8,1 - CLEAR,XX GLENWOOD AV,39.149013,-84.497299
039F2D4B-D220-44F7-9200-C3DAE8476A84,2023-11-06,FRI,15,99 - OTHER/UNKNOWN,60XX FERNVIEW AV,39.179111,-84.442621
03A03062-D0F1-4F42-A18C-AB3BDE7B514F,2023-06-14,WED,22,1 - CLEAR,12XX BEECH AV,39.115556,-84.577238
03A16BF2-7A73-4D17-B1CE-FF9B5906E5E6,2023-03-06,MON,15,1 - CLEAR,19XX DALEWOOD PL,39.176201,-84.461081
03A1DC2C-3EBE-4365-85AD-19705B39DA54,2023-02-14,TUE,19,1 - CLEAR,54XX WINTON RD,39.203541,-84.546201
03A44A81-F2CB-43B6-BAD3-A16DEF21A0BF,2023-08-27,SUN,11,1 - CLEAR,4XX E KING DR,39.134241,-84.497921
03A596A8-95B6-410B-9C67-06D476A244B6,2023-02-19,SUN,14,1 - CLEAR,29XX HARRISON AV,39.145221,-84.596131
03A8A404-DF2D-43F8-B5B8-3A0320BBB0CC,2023-12-12,TUE,11,99 - OTHER/UNKNOWN,28XX LANGDON FARM RD,39.179261,-84.436241
03B26FC4-07A3-47CE-AA12-0AB419A91218,2023-11-29,WED,12,1 - CLEAR,45XX MARBURG AV,39.159309,-84.423987
03B31F0F-FBF2-4E53-B58C-7204C2E6459F,2023-03-16,THU,15,2 - CLOUDY,33XX WOODBURN AV,39.13905,-84.47579
03B59206-5249-43C4-9F1F-E4FFFE39CFAA,2023-05-23,TUE,11,1 - CLEAR,78XX NEWBEDFORD AV,39.205648,-84.457251
03B878AC-F8D9-4108-BEFE-4D0F06EDF327,2023-10-02,THU,12,99 - OTHER/UNKNOWN,61XX GLENWAY AV,39.142652,-84.620802
03BADAC2-A128-462B-A300-4FA725D198C3,2023-10-30,MON,9,4 - RAIN,15XX HARRISON AV,39.125605,-84.547785
03BEFD2A-CBA9-44BF-A440-A747518A0822,2023-12-07,THU,17,1 - CLEAR,2XX W MITCHELL AV,39.16529,-84.51227
03C0A957-7127-41C6-8933-A9A74260171A,2023-09-18,MON,15,2 - CLOUDY,53XX BROTHERTON CT,39.151821,-84.404701
03C40A01-4BB7-4632-9F62-84E842A993BA,2023-10-06,FRI,9,4 - RAIN,26XX EDEN AV,39.128773,-84.504917
03C98569-B3E6-4C42-9AC0-06ACB65A7707,2023-10-23,MON,15,1 - CLEAR,38XX VICTORY PY,39.151641,-84.473181
03D126B0-5CF3-4128-840C-C9A54B5D0125,2023-01-24,TUE,14,1 - CLEAR,34XX SHAW AV,39.138898,-84.441016
03DA574B-4D91-4953-AA9C-67133BC7AFAC,2023-07-18,TUE,19,4 - RAIN,6XX W 8TH ST,39.103681,-84.525959
03E145E5-A9A1-4258-AB53-9B027BC71FC1,2023-01-27,THU,16,4 - RAIN,N I71 AT 3-8 MM,39.134302,-84.492006
03E6CFB8-8A82-47C7-BEC2-D7B7D9CFD9B4,2023-03-07,TUE,7,2 - CLOUDY,65XX EDWOOD AV,39.208075,-84.538061
03EA26C6-6D88-4D37-9344-B826EDDF9CEC,2023-05-04,THU,1,2 - CLOUDY,8XX MAIN ST,39.105351,-84.509911
03EA94CC-F4FF-48F3-86DB-F005324F8B14,2023-07-02,SUN,20,1 - CLEAR,33XX BOUDINOT AV,39.148691,-84.603071
03EEE327-6E83-44A8-AADC-DB9C971A658E,2023-06-06,TUE,6,2 - CLOUDY,W I275 AT 72-6 MM,39.060051,-84.421252
03F4186E-560A-4EF5-9A4B-2CA3B271A00F,2023-11-09,THU,11,2 - CLOUDY,18XX LOGAN ST,39.115901,-84.520591
03F48E75-06B0-4CFF-BE4E-89C95C19C2AC,2023-05-18,THU,4,1 - CLEAR,43XX VIRGINIA AV,39.167261,-84.548671
03F4968C-7599-49D2-83BA-22B16D0E939B,2023-12-17,SUN,3,4 - RAIN,10XX COLUMBIA PY,39.105611,-84.496051
03F6D37D-0740-4F81-B352-91893ED083DC,2023-06-10,SAT,7,1 - CLEAR,20XX QUEEN CITY AV,39.128014,-84.574855
03FC5A67-F795-4522-AD6A-AB6ED43B79E3,2023-09-21,THU,15,1 - CLEAR,N I75 AT 5-5 MM,39.160761,-84.525278
03FD48B8-7A8C-490D-9FA9-A69918D6F043,2023-10-12,THU,17,1 - CLEAR,14XX E KING DR,39.134591,-84.494371
03FD9780-897C-455C-8B8C-3B382C6DE5FE,2023-06-21,WED,4,1 - CLEAR,12XX QUEBEC RD,39.115051,-84.574771
03FFAE76-D827-47E2-8B99-D4C0971509CE,2023-01-15,SUN,18,1 - CLEAR,13XX BROADWAY ST,39.112411,-84.509551
0401627B-2BAD-4122-BC23-E71442C43CE8,2023-10-11,WED,13,1 - CLEAR,23XX BOUDINOT AV,39.127681,-84.605001
04037E71-EB61-48A1-BBFA-B6B10B1BD882,2023-06-30,FRI,21,1 - CLEAR,XX E MCMICKEN AV,39.117721,-84.517092
040B17FE-5483-439F-8C87-320807DE7B80,2023-01-26,MON,15,99 - OTHER/UNKNOWN,26XX OCOSTA AV,39.14111,-84.56872
04171D9B-899D-4F35-9EF1-F8D5D01D6B82,2023-08-22,TUE,8,1 - CLEAR,X E 3RD ST,39.099284,-84.512093
0417647F-0296-4A6D-8866-EE9F3C695583,2023-08-02,WED,18,1 - CLEAR,83XX WOODBINE AV,39.213588,-84.466252
041825FC-2544-4E57-BDB2-B471F583D422,2023-06-12,MON,17,1 - CLEAR,W I74 AT 17-0 MM,39.157987,-84.565058
041CAAEF-8654-4D19-8D83-90CAE7EF199A,2023-06-23,FRI,22,1 - CLEAR,9XX GRAND AV,39.108935,-84.561389
042D1DFD-3820-425A-9A30-44796B84BE2A,2023-11-07,TUE,14,1 - CLEAR,13XX WILLIAM HOWARD TAFT RD,39.126487,-84.482352
04379C5C-BE41-4D85-B1B3-B9CBBE997389,2023-07-11,TUE,20,1 - CLEAR,10XX LUDLOW AV,39.154439000000004,-84.536786
043A7595-70CF-4E5E-AE45-5095F19116EC,2023-10-24,TUE,18,1 - CLEAR,55XX GLENWAY AV,39.131421,-84.609741
043B1F04-896D-49E4-8BF9-8A489C442D73,2023-12-24,SUN,12,2 - CLOUDY,39XX BEEKMAN ST,39.158981,-84.549511
043CDAB6-1AEE-4C7A-8EA2-4032E799DB03,2023-08-24,THU,8,4 - RAIN,XX E 6TH ST,39.102948,-84.511383
043F8956-76FD-48C2-9BB4-EEC3FA610E90,2023-06-16,FRI,15,1 - CLEAR,50XX WINNESTE AV,39.182461000000004,-84.512592
044C747A-B45A-4913-B4FB-1FEFE27BCAA6,2023-02-25,SAT,13,1 - CLEAR,N I471 AT 6-0 MM,39.102798,-84.499411
04507CA2-4511-4193-9054-76857CCCA0B1,2023-09-05,TUE,12,1 - CLEAR,38XX GLENWAY AV,39.113391,-84.576421
045BD415-A63F-4B22-908A-73B6213906A2,2023-08-26,SAT,12,2 - CLOUDY,17XX ELM ST,39.115341,-84.518541
04625689-1B8E-4AC9-AB70-54E82353B9E3,2023-01-31,TUE,10,6 - SNOW,41XX MARBURG AV,39.152452,-84.422303
0465114C-23A4-43F1-BA63-6EEBB8DBA63D,2023-08-17,THU,15,1 - CLEAR,32XX VICTORY PY,39.140549,-84.483267
0466F13D-2B34-44E2-BFEB-5367D9CBBFA2,2023-12-09,SAT,22,2 - CLOUDY,3XX MAIN ST,39.111241,-84.509461
046A9BCB-C0F3-492C-A298-512B63B93445,2023-08-28,MON,15,1 - CLEAR,63XX MADISON RD,39.159248,-84.387273
0475D019-23B4-4E02-AEC6-75812BCD9421,2023-11-02,THU,21,1 - CLEAR,1XX  W 72ND ST,39.196629,-84.480588
047DA1D0-182B-4749-ABF7-3950F4FA06D5,2023-05-20,SAT,3,4 - RAIN,42XX COLERAIN AV,39.162813,-84.551227
047DEE64-814A-4E7C-8273-560D09D00106,2023-11-04,SAT,18,1 - CLEAR,8XX BEECHER ST,39.132756,-84.489729
047F9F32-D081-4B9F-B251-09AA7F09BE99,2023-03-02,THU,12,1 - CLEAR,55XX GLENWAY AV,39.132565,-84.609381
0481FDC0-3117-4FA2-8880-DB3CEC0869DA,2023-05-11,THU,18,1 - CLEAR,26XX PUTZ PL,39.158575,-84.567505
048F56C0-D8CF-4225-8489-38EAA7B567D1,2023-09-06,WED,16,1 - CLEAR,S I71 AT 2-1 MM,39.110841,-84.501391
049145C6-38D1-40B3-8C1C-5742B66056A7,2023-10-31,TUE,5,1 - CLEAR,20XX VINE ST,39.119026,-84.518211
04937EEA-D3E3-4C67-BD1D-EE173169E75E,2023-12-14,THU,18,1 - CLEAR,25XX WILLIAMSBURG DR,39.15685,-84.56311
0496E4AA-AC04-4130-A1A5-C9D2F0428260,2023-06-16,FRI,13,1 - CLEAR,55XX GLENWAY AV,39.130851,-84.608661
0498CC7E-AB79-439E-832D-FF8A96D333E8,2023-05-28,SUN,16,1 - CLEAR,41XX READING RD,39.157504,-84.475985
049AA7F1-D491-43D4-AEA9-67308E522FA6,2023-04-28,FRI,2,4 - RAIN,XX CHARLTON ST,39.130652,-84.508597
049EC041-C86C-4DEB-9A3C-0B057E853872,2023-02-04,SAT,20,1 - CLEAR,55XX COLERAIN AV,39.194141,-84.573286
04AA305A-C831-4235-A1A0-4EE1C8E5D907,2023-02-15,WED,0,1 - CLEAR,24XX HARRISON AV,39.141811,-84.580356
04B01CF3-AB1B-466A-B296-2DE9872D0565,2023-11-09,THU,1,1 - CLEAR,10XX LUSITANIA AV,39.111777,-84.591872
04B0472D-EBE3-4263-A0AE-7FEEE8B5598F,2023-02-15,WED,14,1 - CLEAR,16XX RACE ST,39.102392,-84.515524
04B322BF-D29B-4DD0-A3C5-AB0294063509,2023-09-19,TUE,19,1 - CLEAR,S I75 AT BRENTSPENCE,39.096173,-84.522513
04B6F5D5-7E76-43E2-B23E-88F4B7B13A4E,2023-11-16,THU,13,1 - CLEAR,5XX W KING DR,39.134084,-84.497195
04BC7856-5233-4E2E-9206-0391A4B276F5,2023-04-21,FRI,17,4 - RAIN,S I75 AT 2-1 MM,39.117746,-84.535711
04BFA4C6-1FDC-4B76-9C85-0E6DC3ABC0ED,2023-01-17,TUE,7,2 - CLOUDY,N I75 AT 8-4 MM,39.182844,-84.484403
04C1C1F2-762D-4F29-88F2-1C0E31D05EC0,2023-03-21,TUE,21,4 - RAIN,21XX GRAND AV,39.122951,-84.554041
04CA7646-A44C-44CC-B96E-5BD5009215E5,2023-05-30,TUE,3,2 - CLOUDY,24XX VINE ST,39.126561,-84.511941
04CD95EC-D8B5-406C-811F-822540D145AD,2023-04-12,WED,18,1 - CLEAR,XX W MITCHELL AV,39.169896,-84.513593
04DD35F9-E19C-4925-9D26-4F6CBD137499,2023-05-04,THU,7,1 - CLEAR,46XX GLENWAY AV,39.115499,-84.592706
04E4BF9A-AC97-4666-A0D7-4B31BD3B9527,2023-06-02,FRI,13,1 - CLEAR,45XX READING RD,39.166673,-84.473183
04EB0995-1FA1-4CF0-B111-4CC10ADB94EB,2023-10-20,FRI,20,1 - CLEAR,35XX DICK ST,39.146156,-84.507213
04F10CDD-131B-4489-8925-751386841904,2023-10-18,WED,7,1 - CLEAR,70XX GRACELY DR,39.118074,-84.698345
04F1CED3-007C-4C49-9337-DF6DB24DC645,2023-12-20,WED,16,2 - CLOUDY,31XX BURNET AV,39.134369,-84.500275
04F2591A-6B97-415A-BDE6-952F7F704ED0,2023-11-17,FRI,8,2 - CLOUDY,7XX STATE AV,39.104555,-84.553101
04F3ADE0-7443-45AB-99A2-24A76FCF1286,2023-04-22,SAT,23,1 - CLEAR,3XX E 6TH ST,39.101346,-84.520041
04F4F3BA-577A-4293-A08C-385AF2788A62,2023-03-18,SAT,2,1 - CLEAR,50XX RED BANK RD,39.164339,-84.403556
04F57A56-F3CB-4FF8-B064-88093B1F013F,2023-09-30,SAT,11,1 - CLEAR,42XX W 8TH ST,39.107956,-84.588921
04F67A43-9B1A-4080-8448-5895EB2BA9EF,2023-10-31,TUE,6,1 - CLEAR,S I75 AT 10-9 MM,39.133256,-84.495033
04F7B65D-E29C-47C9-B6CC-0742DD2A6B33,2023-05-23,TUE,8,1 - CLEAR,34XX WARSAW AV,39.109671,-84.566531
04FA3026-D7C8-4289-929E-A9D4C32B84EE,2023-01-23,MON,8,1 - CLEAR,9XX HATCH ST,39.109711,-84.495551
04FA5E9B-EE41-431E-A09F-12C4D801F967,2023-02-01,SUN,0,4 - RAIN,23XX CENTRAL PY,39.122433,-84.533391
04FE2913-C17E-4DC3-8527-E05ED321CDD3,2023-03-15,WED,7,1 - CLEAR,16XX WESTWOOD AV,39.124472,-84.553862
04FF5566-C872-46AF-AD15-5D174CBBF28A,2023-07-25,TUE,18,1 - CLEAR,2XX E CENTRAL PY,39.107861,-84.509781
050C03CA-73FF-4A45-822B-A3FE57BD048A,2023-04-06,WED,20,4 - RAIN,54XX READING RD,39.180461,-84.465987
050D4F10-2B31-409A-BA10-97831CD08575,2023-03-23,THU,12,2 - CLOUDY,22XX DANA AV,39.144359,-84.457561
051053EE-4650-4037-8C35-4AD233C370DC,2023-05-13,SAT,14,4 - RAIN,16XX CEDAR AV,39.199291,-84.547262
05145478-D0A6-44D9-87E6-5D616E624A61,2023-01-18,WED,7,2 - CLOUDY,S I71 AT 4-5 MM,39.141808,-84.483241
05150AF2-0530-4ABB-91D9-2AB07B75D8B5,2023-05-26,FRI,15,1 - CLEAR,33XX MADISON RD,39.156931,-84.423593
05180F04-D5C2-41F6-98CC-B8E00A85E255,2023-02-28,TUE,12,1 - CLEAR,1XX MASON ST,39.121031,-84.509531
0518244A-596B-4FAF-AED7-D1D51DFC161A,2023-08-21,MON,16,1 - CLEAR,N I71 AT 0-9 MM,39.098515,-84.510921
051953A0-7CDD-4065-921C-F0A11F5F0DB7,2023-05-25,THU,1,1 - CLEAR,22XX CENTRAL PY,39.120531,-84.528881
051C67A3-FE8F-492F-82D1-E880D1154B0D,2023-05-31,WED,15,1 - CLEAR,16XX LINN ST,39.113091,-84.528111
051D4F56-7468-4573-8695-B4A2F4769B5E,2023-11-01,WED,7,1 - CLEAR,23XX MONTANA AV,39.156444,-84.571478
05218229-CEEA-463D-B819-147C8B598CEB,2023-03-08,WED,11,1 - CLEAR,20XX READING RD,39.119855,-84.499401
0524CF6B-C81A-4EDA-8F3B-EE4CDF7CC55C,2023-11-12,SUN,16,1 - CLEAR,26XX SHORT VINE ST,39.12968,-84.50898
052516FD-0BBE-4C45-962E-3DAF3DAB2ECB,2023-03-25,SAT,16,1 - CLEAR,42XX SPRING GROVE,39.159636,-84.530761
05252ED4-A3F2-44DA-B55E-ACF70132EF38,2023-08-22,TUE,17,1 - CLEAR,9XX RACE ST,39.105198,-84.515943
052FF445-0BB5-4A23-9D9B-3E0566759F33,2023-10-29,SUN,20,4 - RAIN,12XX ELM ST,39.107497,-84.517305
05302A2E-3D8D-4318-ADEF-EFE1E04264B5,2023-02-20,MON,14,1 - CLEAR,26XX HIGHLAND AV,39.127935,-84.503138
05315802-5F52-4337-B06A-D23D5F6AA046,2023-02-01,WED,9,1 - CLEAR,57XX ESTE AV,39.186381,-84.498991
0535B1A7-E907-4E8B-88A0-959AABEB5A10,2023-01-13,FRI,18,6 - SNOW,27XX HARRISON AV,39.141582,-84.592792
053A379B-5EC7-4E23-84CA-8197F6212183,2023-06-17,SAT,18,1 - CLEAR,47XX BEECHMONT CR,39.117829,-84.415551
053E0407-F580-4CD7-B8AC-BB78C63D71FD,2023-11-17,FRI,12,2 - CLOUDY,62XX GLENWAY AV,39.145471,-84.624535
054E92E7-E37B-44FE-90F1-20AC89BD6A88,2023-08-29,TUE,13,1 - CLEAR,33XX WHITFIELD AV,39.143461,-84.524031
054F9DDB-4004-4ABB-867F-5F802789D420,2023-06-08,THU,18,1 - CLEAR,W I74 AT 18-9 MM,39.151881,-84.540921
055FA5A6-D695-419E-8001-F037B8228BDA,2023-12-10,SUN,8,2 - CLOUDY,XX GLENWOOD AV,39.156493,-84.506633
0562AA1B-0231-4A7B-92D1-00D38956586C,2023-10-28,SAT,21,4 - RAIN,50XX COLERAIN AV,39.178361,-84.564165
0565B454-6F71-4405-BE54-2E91F0C2630E,2023-01-24,TUE,6,2 - CLOUDY,5XX W 7TH ST,39.103251,-84.522228
05672662-65A4-4520-BBF0-C6103BE9BC44,2023-06-25,SUN,2,1 - CLEAR,XX FOREST AVE,39.147925,-84.508756
0568F027-654A-41C7-A94C-AB59AA0C8B97,2023-05-01,MON,16,2 - CLOUDY,X W NORWOOD LATERAL,39.164901,-84.428911
0571052B-937F-41D6-AA44-5D7B39032A2E,2023-08-14,MON,1,1 - CLEAR,22XX SPRING GROVE AV,39.124066,-84.536956
0579AB6D-A6D7-442A-9199-BD001A4B9A7C,2023-05-28,SAT,14,1 - CLEAR,67XX PARKLAND AV,39.116071,-84.694061
057E853A-8948-4828-B184-7C0662B2F472,2023-06-23,FRI,23,1 - CLEAR,30XX BEEKMAN ST,39.140581,-84.549061
05803984-4796-480A-81D2-390A08C5FE9D,2023-07-27,THU,0,1 - CLEAR,3XX ELM ST,39.098049,-84.514602
0580A318-5D11-4730-97EA-DC12870B59D4,2023-01-11,WED,13,1 - CLEAR,75XX VINE ST,39.199285,-84.474751
0588732D-D444-4DF4-9373-81C065738B09,2023-01-27,FRI,18,2 - CLOUDY,49XX HAWAIIAN TE,39.183931,-84.564741
0598EBCC-DCC8-46C9-834B-5A83B1BD73AF,2023-12-21,THU,10,1 - CLEAR,26XX GEHRUM LN,39.131721,-84.592571
05998480-DEE7-4BEA-B176-F66C785F4522,2023-06-14,WED,6,1 - CLEAR,38XX DAKOTA AV,39.150801,-84.479201
059C99B6-E7F4-4B46-9C9E-1604D187AC70,2023-12-16,SAT,21,4 - RAIN,N I71 AT 8-0 MM,39.099461,-84.510772
05A076D8-A15B-4A12-9663-17939E29652A,2023-07-08,SAT,15,1 - CLEAR,N I75 AT 2-0 MM,39.118456,-84.536042
05A72CCB-9AD9-41C2-8EB6-39A67A015E9E,2023-04-26,WED,9,1 - CLEAR,2XX E RONALD REAGAN HW,39.193401,-84.474426
05AAFB3D-F144-4499-BC09-C9AB87421AC5,2023-07-02,SUN,16,1 - CLEAR,18XX E SEYMOUR AV,39.189189,-84.460167
05B27C35-1C87-49A0-B549-7F16F57650B7,2023-09-15,FRI,16,1 - CLEAR,1XX MT ECHO PARK,39.094398,-84.568477
05B42EAB-A7C9-4AAF-9778-AB3143528AE2,2023-02-23,THU,22,1 - CLEAR,33XX READING RD,39.137571,-84.495545
05B57AAF-B5F1-43D8-87D3-33E1798D2C0B,2023-04-10,MON,13,1 - CLEAR,1XX W MITCHELL AV,39.160938,-84.506808
05B87D2D-1761-472D-B0D7-816E6322A136,2023-11-15,TUE,17,1 - CLEAR,36XX VICTORY PY,39.146388,-84.481601
05B8D825-D5B8-4F81-9E95-7DF59935E7EF,2023-08-10,TUE,18,1 - CLEAR,56XX BRAMBLE AV,39.151588,-84.399772
05C47BB1-9EEB-442C-A4AA-6DFE2A3A5487,2023-09-18,MON,18,1 - CLEAR,2XX FINDLAY ST,39.117011,-84.520031
05C94563-C7F5-423E-8549-63532F583E0B,2023-04-05,WED,13,4 - RAIN,12XX BEECH AV,39.115001,-84.577931
05CBD11A-F06A-47C5-8729-E4877F54F282,2023-01-31,TUE,7,9 - FREEZING RAIN OR FREEZING DRIZZLE,6XX FREEMAN AV,39.102421,-84.532258
05D1A586-B934-41C5-BDC8-C9B6C8062767,2023-10-04,WED,9,1 - CLEAR,16XX WESTWOOD AV,39.124205,-84.548071
05D1FC36-8A99-4613-80D0-0E102D079FE2,2023-03-05,SUN,12,1 - CLEAR,32XX VANDERCAR WY,39.158372,-84.427281
05DAF2DB-F335-46E3-9ADC-7709CE3F8FB3,2023-10-27,FRI,21,1 - CLEAR,23XX RAVINE ST,39.127641,-84.524921
05DB41E8-44D8-4CB0-AE5F-7922E501FB11,2023-01-27,FRI,14,1 - CLEAR,XX CLINTON SPRINGS AV,39.157463,-84.505056
05DFCDB4-7D1B-44F7-BDD8-7E3F915B9A1E,2023-12-09,SAT,20,4 - RAIN,35XX WOODBURN AV,39.145401,-84.474771
05E6C372-7B4D-427D-B0A6-B9E65467B068,2023-09-13,WED,10,1 - CLEAR,45XX SPRING GROVE AV,39.155311,-84.540911
05F7FC0D-581C-4ABB-8B98-010351E9F4B4,2023-01-12,THU,15,4 - RAIN,38XX CLIFTON AV,39.155415,-84.518123
05F95827-404D-443C-9AC6-24C63E50BD26,2023-09-07,THU,17,2 - CLOUDY,30XX WOODSIDE DR,39.134781,-84.514021
05FC45AB-98C7-4160-8E7E-2B287CE369CA,2023-01-27,FRI,9,1 - CLEAR,28XX WOODBURN AV,39.131296,-84.477443
05FE3763-B608-4D0B-8F24-82AFB90A64F9,2023-06-23,FRI,15,2 - CLOUDY,37XX BEECHMONT CR,39.119679,-84.415065
06064CCD-7636-4B52-AE3C-B89B12EF9DAC,2023-06-17,SAT,18,1 - CLEAR,8XX W 5TH ST,39.098791,-84.529831
0608E187-CFFE-4089-908C-98AE76BFC277,2023-09-07,THU,13,1 - CLEAR,XX W KING DR,39.136911,-84.511321
060E1CDE-0400-4441-8BC3-0922DE88B3C1,2023-09-08,FRI,16,1 - CLEAR,S I71 AT 0-8 MM,39.097382,-84.512717
0610393A-C74A-48A4-8A61-021866ED6D79,2023-09-12,TUE,16,1 - CLEAR,N I71 AT 0-9 MM,39.109936,-84.501145
0610BCF2-49C7-4AB5-B36E-AD2BD24031F5,2023-07-09,SUN,2,1 - CLEAR,10XX DANA AV,39.148695,-84.480458
06166255-91B0-4835-A68D-924462E34F6D,2023-07-14,FRI,18,1 - CLEAR,42XX VICTORY PARKWAY,39.166443,-84.471079
06186A3A-CC46-4A7F-B140-70E43786241A,2023-03-28,TUE,21,1 - CLEAR,16XX QUEEN CITY AV,39.126445,-84.549711
06208022-46FA-4D66-BE09-541F0539F25D,2023-06-15,THU,10,1 - CLEAR,58XX HAMILTON AV,39.198251,-84.546801
0623D778-5DB9-486E-BF66-689184080AD4,2023-08-11,FRI,15,2 - CLOUDY,4XX W KING DR,39.134956,-84.520954
06256A71-AFE5-4373-9DD8-3DD41994F389,2023-04-30,SUN,20,4 - RAIN,36XX MADISON RD,39.159306,-84.419121
0629BBF9-6F0E-4E8B-A714-FEE4EFE36510,2023-05-19,FRI,19,1 - CLEAR,60XX KENNEDY AV,39.181977,-84.414241
062A74EC-B0FC-4007-B140-FCF70BFE5D23,2023-07-29,SAT,7,4 - RAIN,29XX HIGHLAND AV,39.166627,-84.431321
0630C037-F5D3-42F3-83F8-63E05BCA79CF,2023-05-25,WED,11,1 - CLEAR,43XX KELLOGG AV,39.100381,-84.432351
063594FD-B988-4602-A079-3BD61F2C4E9C,2023-05-08,MON,14,1 - CLEAR,12XX LAIDLAW AV,39.177934,-84.480705
0639A06D-3653-4955-B8EC-561FE8CA2D71,2023-08-01,TUE,19,1 - CLEAR,48XX READING RD,39.175299,-84.468153
063D961E-26F9-49EB-884E-DEF82A4FABF4,2023-03-14,TUE,14,1 - CLEAR,31XX GEIER DR,39.163139,-84.427733
063FC7CF-6EAF-4DCB-889B-0D30813C8C8E,2023-09-12,TUE,7,4 - RAIN,N I75 AT 8-3 MM,39.179791,-84.485723
064657D7-D40D-4312-8AD3-C203675E004F,2023-03-22,WED,14,2 - CLOUDY,S I75 AT 5-7 MM,39.160402,-84.522171
06480B3D-98F4-4A99-9294-08241DDCA0C7,2023-01-31,TUE,10,2 - CLOUDY,4XX PURCELL AV,39.098045,-84.566023
064F4A79-F0F1-4DE3-AC9E-167726903028,2023-06-17,SAT,20,1 - CLEAR,19XX QUEEN CITY AV,39.126579,-84.565448
064FD533-D253-49D5-B1E1-E891CE4328D8,2023-07-25,TUE,7,1 - CLEAR,12XX SUNSET AV,39.116283,-84.584957
0655E78C-4625-4B21-95CC-7F3F4273EA28,2023-09-17,SAT,14,99 - OTHER/UNKNOWN,1XX W MCMILLAN ST,39.128114,-84.515798
0656D78E-6224-492D-9CC2-964A26E4BD0E,2023-10-09,MON,17,1 - CLEAR,13XX WESTERN HILLS VIA,39.123871,-84.540541
0657D0FC-EC30-4ABF-988E-08328E1AAF4B,2023-01-08,SUN,15,1 - CLEAR,23XX GLENWAY AV,39.106687,-84.553321
0660AAD2-6BCB-4E14-A502-8CAAF3F3183B,2023-04-16,SUN,9,2 - CLOUDY,3XX ELM ST,39.097959,-84.515122
0667035C-07CA-4A8E-AAE9-3F592477DBF3,2023-02-06,MON,7,2 - CLOUDY,E I74 AT 18-9 MM,39.154506,-84.545898
0668033F-6987-4CC5-AE40-02415D090E01,2023-02-26,SUN,17,1 - CLEAR,N I75 AT 2-3 MM,39.123248,-84.534183
06728D9A-3EAC-40F2-A87F-5C508EB10403,2023-10-07,SAT,2,1 - CLEAR,13XX W NORTH BEND RD,39.202048,-84.538412
06775735-46CC-4876-975D-432EED2F52EF,2023-06-21,WED,15,1 - CLEAR,33XX MCHENRY AV,39.145399,-84.572061
067CE9BE-AA23-41BA-9FDA-B54463DD4977,2023-05-28,SUN,10,1 - CLEAR,34XX VINE ST,39.145025,-84.511441
067E4D9C-CFE9-4695-A6DB-4FF47037AB6A,2023-07-04,TUE,16,1 - CLEAR,3XX LUDLOW AV,39.142646,-84.523321
067E9AAB-D3D5-49A5-911C-29E11B124BFB,2023-01-16,MON,7,1 - CLEAR,49XX SPRING GROVE AV,39.169264,-84.508662
06855CC0-CAC8-41C8-9BC2-7BF08FE89406,2023-11-29,WED,20,1 - CLEAR,83XX VINE ST,39.211811,-84.474985
069305ED-EC95-40E5-88A1-5D18368583BF,2023-08-03,THU,15,1 - CLEAR,24XX HIGHLAND AV,39.127145,-84.503499
069B3072-9CE8-4CE7-ACCC-26DD728EDFCE,2023-02-19,SUN,16,99 - OTHER/UNKNOWN,34XX BROTHERTON RD,39.153477,-84.423126
069C787B-F13A-4DCD-A5D8-E796E9FB8F1E,2023-12-08,FRI,18,1 - CLEAR,24XX ELBERON AV,39.09803,-84.5592
069FCC5A-EE1A-42F0-976B-16AC25F67744,2023-08-25,FRI,7,1 - CLEAR,49XX GRAY RD,39.181338,-84.526018
06A3E1EA-2093-4A2B-A20F-019F94D28D0A,2023-09-29,FRI,9,"3 - FOG, SMOG, SMOKE",31XX SPRING GROVE AV,39.138342,-84.542071000000007
06A5EE03-7D9A-4AE7-B66B-3DCDF458DD9F,2023-10-30,MON,15,1 - CLEAR,50XX PADDOCK RD,39.177207,-84.477126
06A84DCB-1E24-46B4-BB98-71B96A6DF31A,2023-06-03,SAT,14,1 - CLEAR,9XX W LIBERTY ST,39.114086,-84.529919
06ABEFB3-B5E3-4202-80FB-1E6FABC36065,2023-08-19,FRI,12,1 - CLEAR,28XX CLIFTON AV,39.134133,-84.521147
06AF5748-2E1E-4080-A7D4-100F0E130C3D,2023-11-21,MON,13,4 - RAIN,25XX GILBERT AV,39.126541,-84.490551
06B29510-815D-4209-96CF-9BF89FD286D0,2023-01-12,THU,7,4 - RAIN,S I71 AT 4-1 MM,39.138125,-84.487522
06B4008B-420A-4B58-9E49-57B95F348924,2023-07-29,THU,16,99 - OTHER/UNKNOWN,5XX LOWELL AV,39.142076,-84.524803
06BFFA47-EF1D-4A09-A37B-CCD5FCA3268D,2023-04-02,SUN,4,1 - CLEAR,5XX ELBERON AV,39.101141,-84.566586
06C0ACE3-CDDA-4F34-A059-E255E0C5BAFF,2023-12-01,FRI,14,2 - CLOUDY,22XX COLUMBIA PY,39.124608,-84.471131
06C5D351-BDC6-43B8-A487-B1F3FEC33357,2023-01-15,SUN,20,1 - CLEAR,12XX HOPPLE ST,39.136901,-84.536531
06C9B012-B1DF-4B68-8C91-670B8C9E32BB,2023-08-25,FRI,21,1 - CLEAR,7XX E MCMILLAN ST,39.124962,-84.491141
06CA885A-603B-425A-B3BD-1D734153BFF3,2023-10-02,MON,8,1 - CLEAR,8XX STATE AV,39.104059,-84.512116
06CABF27-84E2-4C89-9A14-16CF0A2440DF,2023-08-30,WED,16,1 - CLEAR,39XX W 8TH ST,39.106473,-84.580792
06CD7803-F18D-409B-B504-6459C1668ABF,2023-01-28,SAT,13,1 - CLEAR,13XX NEFF AV,39.11267,-84.5513
06CE3CF8-2852-4EAC-8FD1-9BEB7C7C756F,2023-12-17,SUN,3,4 - RAIN,5XX CLINTON SPRINGS,39.156329,-84.495148
06CE7AFA-2089-474B-903C-66715DE807FB,2023-05-08,MON,14,1 - CLEAR,2XX FAIRBANKS AV,39.093752,-84.574117
06D087DD-30DE-4424-9520-8F898FFEBC58,2023-02-10,THU,12,1 - CLEAR,N I71 AT 5-0 MM,39.142261,-84.482011
06D52AA7-80DA-4E51-AD37-C8FCC3B8D34A,2023-08-20,SUN,11,1 - CLEAR,37XX MONTGOMERY RD,39.146081,-84.467633
06E09878-FE18-47EF-A183-3104B0F93919,2023-11-15,WED,2,1 - CLEAR,54XX BETTMAN DR,39.188041,-84.511792
06ED52DD-296D-4196-9AB5-D9E9021BF625,2023-10-15,SUN,17,1 - CLEAR,2XX CENTRAL AV,39.097921,-84.519281
06F47E32-2ECD-4A51-A694-B382104B145D,2023-11-16,THU,17,1 - CLEAR,12XX HOPPLE ST,39.136387,-84.535992
06FBAEDB-8B97-48A2-AD2A-073A516BC241,2023-04-16,SUN,16,2 - CLOUDY,70XX GRACELY DR,39.119937,-84.699464
0701F179-7D3D-44BE-9E3D-6F4FEA408AB5,2023-03-06,MON,12,1 - CLEAR,2XX ODEON ST,39.119041,-84.516852
070404B9-DEBC-4410-9D3E-792B424592C2,2023-05-17,WED,20,1 - CLEAR,12XX HOPPLE ST,39.137351,-84.536921
0710C527-4E6C-45E9-B603-7B11F223382B,2023-12-10,SUN,21,1 - CLEAR,73XX BROOKCREST DR,39.194911,-84.457428
0710ECDF-888C-4C46-9DC4-2993AA639847,2023-07-15,FRI,9,1 - CLEAR,33XX MADISON RD,39.157141,-84.423253
0711349B-F2A0-4587-81D3-8D4336A340D3,2023-05-21,SUN,18,1 - CLEAR,31XX BOUDINOT AV,39.140489,-84.604229
0716BC1B-0697-4319-BCE5-759A2710C124,2023-11-12,SUN,12,1 - CLEAR,34XX BROOKLINE AV,39.14494,-84.51574
071C5A06-F2DA-4E11-B475-B9A05BD93DAE,2023-08-08,TUE,18,1 - CLEAR,E I74 AT 18-0 MM,39.150571,-84.541331
071FE630-C4E3-49EE-B431-AFB27077852D,2023-01-05,THU,17,1 - CLEAR,N I75 AT 7-8 MM,39.174031,-84.488481
071FF122-D7A9-466F-B3FE-030C2D0174DC,2023-07-07,FRI,16,1 - CLEAR,61XX HAMILTON AV,39.201871,-84.548151
07202C15-AA36-4B3D-97DB-F690743D6346,2023-03-03,FRI,10,4 - RAIN,5XX E KING DR,39.134439,-84.496925
07208FDF-20AF-4812-8492-0DAAF8746413,2023-04-28,FRI,20,2 - CLOUDY,20XX W NORTH BEND,39.202739,-84.561232
0723C5CD-72B1-4BFC-8905-D45FFA15AEA8,2023-09-11,MON,14,1 - CLEAR,21XX CENTRAL PY,39.120063,-84.527226
0725610C-7601-4933-87CD-03D6AF6E63E0,2023-08-29,TUE,19,1 - CLEAR,23XX VICTOR ST,39.125274,-84.523511
0729504D-20A4-4B72-8704-54FB5071092D,2023-08-04,FRI,0,99 - OTHER/UNKNOWN,47XX WILMER CT,39.117501,-84.415981
072A9162-6BCF-471D-A493-576A26A682D7,2023-09-23,SAT,1,1 - CLEAR,12XX 8TH ST,39.104691,-84.535881
072CE667-B6DC-49AE-B1DF-57964C277D9F,2023-10-27,FRI,16,2 - CLOUDY,10XX COLUMBIA PY,39.100741,-84.501801
072EA6BE-799F-429C-8993-D67C7F92ADC8,2023-12-07,THU,16,1 - CLEAR,2XX CLAY WADE BAILEY BRG,39.094499,-84.519286
073023F6-CC01-40CE-8C1D-8CCE285E4BD3,2023-11-18,SAT,19,2 - CLOUDY,26XX W NORTH BEND RD,39.190818,-84.570726
07367163-78D6-4EB3-BBC6-B09FA5022C6F,2023-10-14,SAT,17,2 - CLOUDY,4XX W 3RD ST,39.103461,-84.533568
073758D3-6983-4001-8639-7F9CC45966F2,2023-12-12,TUE,11,1 - CLEAR,67XX JERSEY AV,39.116747,-84.692119
0738F976-4A0B-44ED-850A-EC9DEC20CE2E,2023-05-15,MON,8,4 - RAIN,6XX W 6TH ST,39.100338,-84.523641
07398934-42B3-405D-B3ED-9FACC8BBA294,2023-07-18,FRI,15,1 - CLEAR,23XX READING RD,39.123061,-84.500261
073C2D08-4DDA-48DF-B13E-6DA1427B183A,2023-02-23,THU,10,1 - CLEAR,N I75 AT 8-1 MM,39.178832,-84.485523
073F4A49-17D8-43C8-A89F-561192A3E76D,2023-11-13,MON,15,1 - CLEAR,51XX HAWAIIAN TE,39.183551,-84.566621
07423490-B52D-42DB-81FB-49A9249048D1,2023-03-29,WED,21,1 - CLEAR,XX GLENWOOD AV,39.148873,-84.496529
074688A4-9775-41EE-9B2C-0F07B305E709,2023-04-08,SAT,8,1 - CLEAR,33XX GLENMORE AV,39.148137,-84.613772
074B9520-4F8E-4AB3-BCE8-F666B183C159,2023-04-20,THU,16,1 - CLEAR,50XX CROOKSHANK RD,39.128271,-84.607821
074CFF39-7191-4826-9BAD-BA6DA5735ACF,2023-06-30,FRI,3,4 - RAIN,S I71 AT 2.3 MM,39.112442,-84.500495
0755E874-5237-42A3-8AC8-B32EF628FAB3,2023-08-28,MON,7,1 - CLEAR,48XX PADDOCK RD,39.103349,-84.512346
07597466-F1EB-4DFC-8050-011E638D0BE2,2023-01-30,MON,7,2 - CLOUDY,42XX W 8TH ST,39.106603,-84.589465
076503D8-59DA-4BC4-A7C8-D82E98891061,2023-11-09,THU,9,1 - CLEAR,2XX SOUTHERN AV,39.12131,-84.50671
076605F3-DFA4-49A3-B9D0-5157FFDBE25F,2023-05-06,SAT,10,2 - CLOUDY,35XX MICHIGAN AV,39.140945,-84.441266
076BD69A-5EAE-4C11-BCB6-EFCB662DCF4D,2023-07-05,WED,3,1 - CLEAR,9XX LUDLOW AV,39.151641,-84.534531
076BD752-D34E-4961-A11D-AC54208C0625,2023-07-20,THU,10,1 - CLEAR,1XX E LIBERTY ST,39.113591,-84.512901
077C345E-FF58-4ABD-BAB4-C2B53DAA458C,2023-06-03,SAT,16,1 - CLEAR,XX E 7TH ST,39.104001,-84.513501
07809411-7B31-48B0-8DB2-E81C42EC8BE9,2023-01-31,TUE,3,6 - SNOW,10XX PLUM ST,39.105373,-84.519078
07857CCE-5887-4A83-B62E-490B530AF7F8,2023-07-08,SAT,19,2 - CLOUDY,31XX QUEEN CITY AV,39.136061,-84.605261
0786CFED-F447-46AE-B799-9773B2CCDF97,2023-11-27,MON,20,1 - CLEAR,S I75 AT 4-4 MM,39.148243,-84.538499
0789848F-DBB8-4996-8D45-601AE79951F1,2023-08-21,MON,16,1 - CLEAR,21XX QUEEN CITY AV,39.128178,-84.574296
078C12E1-7135-452E-8D84-9DEEE91502B3,2023-11-21,TUE,14,4 - RAIN,XX GREEN ST,39.114131,-84.517631
078F7BBF-7C33-4392-8319-1F76C2B34570,2023-09-11,MON,22,1 - CLEAR,24XX HIGHLAND AV,39.105536,-84.511062
0790A657-F925-43D5-B7ED-2714BADD445B,2023-11-12,SUN,4,1 - CLEAR,29XX WERK RD,39.139381,-84.596078
07973B5D-1808-45E2-94D7-FA71F48D4AD4,2023-12-02,SAT,19,1 - CLEAR,1XX W 4TH ST,39.098801,-84.515081
079AB5D2-AC0D-4A42-82D3-1D375595CDC4,2023-06-19,MON,18,2 - CLOUDY,41XX GLENWAY AV,39.113439,-84.581631
07A480A9-D957-42FB-89A0-7D8CA990D0F3,2023-03-04,SAT,13,1 - CLEAR,2XX W RONALD REAGAN HW,39.215571,-84.499196
07A5F774-A857-4DA2-88B7-64EFAC42190C,2023-06-16,FRI,18,1 - CLEAR,59XX KELLOGG AV,39.064675,-84.423046
07B14757-E0C7-4DAE-B87A-04EF642BADF7,2023-01-31,TUE,8,2 - CLOUDY,41XX CHAMBERS ST,39.161391,-84.534571
07B1E0F4-73D7-448A-9F95-BF36B9E83307,2023-09-10,SUN,4,1 - CLEAR,48XX PADDOCK RD,39.174541,-84.477105
07B5CC38-38B4-4B03-97C6-CD76E88E51FF,2023-02-16,THU,8,4 - RAIN,45XX PADDOCK RD,39.167758,-84.481807
07C0BA54-46ED-4F1F-871B-225CF9442DB4,2023-11-17,FRI,13,4 - RAIN,54XX GLENWAY AV,39.130031,-84.608126
07C1456D-E919-4369-B4EB-3D4F0B388854,2023-12-20,WED,11,1 - CLEAR,4XX DORCHESTER AV,39.117327,-84.501356
07C578E3-2633-42FB-ABC2-82D58127827A,2023-06-29,THU,7,1 - CLEAR,41XX W 8TH ST,39.108181,-84.588601
07C6AD64-2BFB-4A1B-BADB-04072D377115,2023-08-16,WED,14,2 - CLOUDY,67XX BRAMBLE AV,39.151487,-84.382886
07C8FE02-0F1B-45C4-B354-308886C6A104,2023-10-07,SAT,23,1 - CLEAR,52XX COLERAIN AV,39.185181,-84.567001
07D0D9A8-F530-4BFD-87EE-B94A29230464,2023-03-15,WED,17,1 - CLEAR,26XX MADISON RD,39.144576,-84.443661
07D1CA1B-8E8A-4A8C-B92C-67C383CD874E,2023-07-25,TUE,19,1 - CLEAR,41XX W 8TH ST,39.108485,-84.589398
07D6FCB0-C0B5-44A7-9876-2909789E4D40,2023-07-31,MON,12,1 - CLEAR,30XX QUEEN CITY AV,39.136731,-84.605018
07E12ED7-00E5-4A83-A7BE-AC1170534C77,2023-06-26,MON,10,2 - CLOUDY,N I75 AT 0.1 MM,39.095046,-84.521702
07E307F0-DCAD-40FE-8833-F4A9DA600D81,2023-01-16,MON,22,4 - RAIN,16XX WESTWOOD AV,39.125907,-84.549085
07EF3145-5E4A-4BD9-BD3F-43EF82638773,2023-11-20,MON,16,1 - CLEAR,64XX WINTON RD,39.201225,-84.5207
07F22522-EB1F-434B-B230-7F794D920527,2023-02-18,SAT,14,1 - CLEAR,57XX GLENWAY AV,39.135491,-84.612691
07F8462B-A5F2-4C48-8B8F-974466BED106,2023-02-03,FRI,22,1 - CLEAR,32XX VICTORY PY,39.138231,-84.482401
07F84FAC-9E0C-427D-96BD-E9F58D73FA25,2023-10-15,SAT,16,2 - CLOUDY,28XX CENTRAL PY,39.132006,-84.531897
07F8BBC8-A1F4-4474-AA48-ACA8CB70DF0B,2023-05-13,SAT,14,4 - RAIN,N I71 AT 8-0 MM,39.164077,-84.437596
07F927B7-3F36-4C3B-86A9-7013A54C8BE6,2023-06-24,SAT,21,1 - CLEAR,5XX FORT WASHINGTON WAY,39.173156,-84.475491
07FACD7E-EFE2-4786-9A11-4035F216B344,2023-04-26,WED,0,1 - CLEAR,20XX WESTWOOD NORTHERN BV,39.144614,-84.558357
08069015-5868-4CF8-AB64-54EEF45C099D,2023-03-24,FRI,16,2 - CLOUDY,40XX EASTERN AV,39.109343,-84.432763
08093EE8-6A8A-4374-8969-B63F306E9A4C,2023-10-12,THU,14,1 - CLEAR,11XX ALFRED ST,39.129946,-84.537131
0809802A-32E7-4A4B-973D-A8B91CAE5102,2023-04-19,WED,16,1 - CLEAR,S I71 AT 1-5 MM,39.103398,-84.504285
0814C29D-53F1-4263-AB5B-13A20215C3CF,2023-12-08,FRI,8,1 - CLEAR,18XX LANGDON FARM RD,39.18251,-84.46253
081BAE88-D1F8-48AC-A0E5-05BE7FCF8124,2023-10-24,TUE,11,1 - CLEAR,6XX SYCAMORE ST,39.113326,-84.511157
082F4DB4-C2F4-4B24-84DD-B6D84D5C5548,2023-04-24,MON,13,1 - CLEAR,16XX SUMMIT RD,39.202725,-84.457861
0830412F-5A5D-4187-B250-944F15C10C35,2023-04-20,THU,16,1 - CLEAR,4XX W  KING DR,39.135212,-84.501691
0830DCD9-A94F-416E-814E-FB79D5C4E354,2023-04-11,TUE,11,1 - CLEAR,XX W 69TH ST,39.193808,-84.484158
0833F21B-C6A2-46C7-AA82-8661B4DDF503,2023-02-16,THU,11,4 - RAIN,N I71 AT 4-7 MM,39.144136,-84.479063
08397BEE-3692-43AF-B3E6-FA386EA38939,2023-11-15,WED,13,99 - OTHER/UNKNOWN,27XX VINE ST,39.130571,-84.508811
083B70A2-A2E6-4A55-A536-F9079B9DA682,2023-04-06,THU,12,4 - RAIN,8XX E MITCHELL AV,39.155385,-84.484783
08409338-8775-4F86-9396-BA3836FACA5C,2023-06-02,FRI,18,1 - CLEAR,23XX GILBERT AV,39.124121,-84.492081
08474A9D-7C33-4035-9F8E-B46449743454,2023-11-27,SUN,18,1 - CLEAR,23XX CHICKASAW ST,39.125313,-84.523313
084ABB7A-8205-4673-804B-B47A752931C9,2023-09-21,THU,6,1 - CLEAR,36XX BOUDINOT AV,39.155911,-84.602746
084FC41D-F5B7-478B-B607-9EF396109C72,2023-04-01,SAT,15,1 - CLEAR,48XX CLEVES WARSAW PI,39.117717,-84.599493
08503412-68D6-46F2-B93A-A0DDCDBDC34E,2023-07-08,SAT,8,1 - CLEAR,43XX KELLOGG AV,39.099751,-84.434121
0854EF67-F413-4250-B7EC-883A61AC97CD,2023-12-31,SUN,10,2 - CLOUDY,11XX DELTA AV,39.1323,-84.42789
08593629-29CA-4571-9834-D83BB5C2F3FA,2023-05-12,FRI,2,1 - CLEAR,8XX ENRIGHT AV,39.106201,-84.572691
0859CC8A-92C2-41BA-82B4-B735444ED35B,2023-03-11,SAT,20,1 - CLEAR,29XX GILBERT AV,39.134013,-84.487619
085E0CE5-0E1C-464C-A677-D7025E996081,2023-05-06,SAT,1,1 - CLEAR,25XX CLIFTON AVE,39.128451,-84.518721
085F9920-5C66-44E3-9299-D9E90510AEB8,2023-07-29,SAT,5,4 - RAIN,25XX WARSAW AV,39.109241,-84.557428
085FC39D-2E0D-4C51-BF4D-0792EC6F54DB,2023-05-11,THU,17,1 - CLEAR,22XX DUCK CREEK RD,39.140829,-84.424795
08627C00-43CB-487D-AA44-E17C34C8DC97,2023-02-26,SAT,21,1 - CLEAR,XX W MCMILLAN ST,39.127065,-84.513591
08674FFA-4528-4659-91DC-2D55A166E9B2,2023-08-13,SUN,1,2 - CLOUDY,5XX VINE ST,39.103061,-84.513351
086CA49A-2778-4AC1-A0BB-9951C639A8D7,2023-01-21,SAT,20,1 - CLEAR,44XX W 8TH ST,39.109011,-84.598171
08701F1E-640B-4851-9AD8-D06895B688AD,2023-01-31,TUE,12,6 - SNOW,62XX PADDOCK RD,39.183338,-84.476631
087B69D1-23C2-4453-B3B1-027DF533B5A1,2023-08-23,WED,12,1 - CLEAR,4XX OAK ST,39.129981,-84.500921
087EA30C-1098-4913-A62E-E0BFEE772734,2023-01-05,THU,22,1 - CLEAR,11XX FAIRBANKS AV,39.112636,-84.566987
08803525-13D4-4563-B1AE-71E740F00859,2023-06-30,FRI,19,1 - CLEAR,11XX HOPPLE ST,39.137341,-84.540543
0880FE5C-6EEB-4C14-9CEF-A227A8205D68,2023-03-29,WED,22,1 - CLEAR,41XX VIRGINIA AVE,39.163761,-84.552191
0882F45B-881E-4A86-B1E9-E1525505CD70,2023-12-19,TUE,14,1 - CLEAR,N I75 AT 8-4 MM,39.178525,-84.485736
0885799C-D6D2-40EB-8914-F389991DFD20,2023-10-04,WED,17,1 - CLEAR,41XX HAMILTON AV,39.160641,-84.540471
0887731E-E6D7-4E86-AFF6-7C4755C8606B,2023-03-03,FRI,15,4 - RAIN,44XX COLERAIN AV,39.166529,-84.554311
088FDD53-2968-42E2-9CCB-17F3012CE6B1,2023-03-20,MON,9,1 - CLEAR,37XX PAXTON AV,39.147204,-84.425619
0892A4D8-94C2-4D78-ACA3-CD2B1971FEF2,2023-05-09,TUE,17,1 - CLEAR,3XX STANLEY AV,39.114459,-84.435597
08978996-C0E1-421B-AF6A-331AD055AD66,2023-12-13,WED,13,1 - CLEAR,3XX BROADWAY ST,39.100389,-84.505726
089B94C0-ACBE-468A-A947-CBBCE155B230,2023-09-22,FRI,15,1 - CLEAR,19XX HARRISON AV,39.130494,-84.560771
089BEAB2-F43D-48EC-932C-76EA089F14C2,2023-02-20,MON,12,1 - CLEAR,32XX BOWLING GREEN CT,39.142791,-84.554296
089F0200-8963-4F06-897B-9AC92201EBC9,2023-09-05,TUE,9,1 - CLEAR,23XX AUBURN AV,39.123582,-84.508393
08A73E37-7441-4638-BEB0-0EE4C3B6A498,2023-04-26,WED,13,1 - CLEAR,4XX E PETE ROSE WAY,39.106108,-84.507608
08AA45B5-75BE-4359-A480-893AB464ED12,2023-09-12,TUE,14,2 - CLOUDY,29XX GLENWAY AV,39.112551,-84.560101
08AF5A18-E6F7-4CF1-AC08-D7140D905609,2023-03-19,SUN,9,1 - CLEAR,43XX RED BANK EX,39.151997,-84.406544
08B3DE32-A0E0-4C61-B9E3-58C9F15782F9,2023-01-18,WED,8,2 - CLOUDY,N I75 AT 0.1 MM,39.095076,-84.521622
08B4209F-6485-4EF5-91CF-04B0C142F753,2023-05-17,WED,15,1 - CLEAR,34XX BOUDINOT AV,39.149701,-84.603061
08C1141F-AF13-4218-A78A-202C8C1EEA45,2023-03-24,FRI,15,4 - RAIN,3XX W MARTIN LUTHER KING DR,39.136815,-84.511432
08C21478-C5D2-426C-ABED-47BC33A07A9C,2023-12-09,SAT,18,4 - RAIN,N I75 AT 8-1 MM,39.183056,-84.484475
08C736C4-931F-482B-B3AA-789E21D5E6FE,2023-09-26,TUE,21,4 - RAIN,23XX ELBERON AV,39.099621,-84.556831
08E16D9B-6346-4AFD-BE03-2403229BB366,2023-09-06,WED,8,1 - CLEAR,9XX EZZARD CHARLES DR,39.109771,-84.531641
08E3BB69-8337-4765-A7A9-0366069E6677,2023-11-09,THU,16,1 - CLEAR,SB I71 0-2 MM,39.096691,-84.523271
08E4DFCF-C5C7-4387-BF04-284B8B1511B8,2023-10-27,FRI,0,1 - CLEAR,40XX HAMILTON AV,39.160871,-84.540481
08E8A6BC-2AAF-49AC-9E1A-920DD2F4916F,2023-11-21,MON,9,4 - RAIN,20XX BLUE BELL DR,39.196711,-84.560471
08E94D97-68B6-415A-9705-625E3D4A53BD,2023-05-30,TUE,17,1 - CLEAR,42XX GLENWAY AV,39.113354,-84.582401
08EB00F7-B546-475B-BB86-A1B83B18A66A,2023-06-30,FRI,21,1 - CLEAR,46XX WINTON RD,39.172345,-84.519467
08EBB30F-EBD9-4F30-827C-C413F746560F,2023-09-25,MON,15,1 - CLEAR,32XX WHITFIELD AV,39.140303,-84.524096
08F08D9D-3964-4DEB-9896-774FB3AC96C3,2023-09-21,THU,15,1 - CLEAR,X W CORRY ST,39.128152,-84.507486
08F10868-CDE7-4F7F-9B54-E6BD1862AF2E,2023-10-19,THU,16,4 - RAIN,42XX READING RD,39.160241,-84.474131
08FECDD7-F83A-4EC4-B1C4-D8D563112BF9,2023-04-19,WED,8,1 - CLEAR,11XX WILLIAM HOWARD TAFT RD,39.126735,-84.485103
08FF6803-EF27-4CE6-9AE6-E2FFEBC3CEA7,2023-01-13,FRI,20,6 - SNOW,XX W KING DR,39.137591,-84.511232
0902DAA4-E555-407D-97D2-3A005372601D,2023-08-09,WED,14,1 - CLEAR,34XX BURNET AV,39.142591,-84.501199
090486CE-E7EE-41EE-8855-87D4791CE232,2023-04-29,SAT,23,4 - RAIN,2XX W MCMILLAN ST,39.128649,-84.522079
090A9E38-7D33-4942-A387-EC059A25B917,2023-02-19,SUN,21,1 - CLEAR,33XX ERIE AV,39.141144,-84.424153
090CE33D-1707-495F-A8DF-50EBB08C4A85,2023-05-18,THU,15,1 - CLEAR,S I71 AT 0-6 MM,39.099004,-84.517936
090E133E-6835-4FD3-B38B-969AE5B91EE3,2023-03-09,THU,12,1 - CLEAR,53XX GLENWAY AV,39.126811,-84.605591
0912BC59-611D-4D26-AC70-C10AE0A2A2A8,2023-11-13,MON,8,1 - CLEAR,42XX KIRBY AV,39.165228,-84.548421
0912CA60-193B-437D-AC74-BE33199E86DB,2023-10-03,TUE,8,1 - CLEAR,11XX HARRISON AV,39.121474,-84.535521
091833ED-39A3-4E51-B1F5-20F5A1BF6084,2023-02-25,SAT,2,1 - CLEAR,3XX MCGREGOR AV,39.122217,-84.502408
0921DE6E-E608-4B41-BDD9-7F561193F222,2023-11-09,THU,8,2 - CLOUDY,S I75 AT 3-6 MM,39.116466,-84.534731
0921E73A-E5F5-4EFC-8EAE-AA795E82D878,2023-10-30,MON,18,1 - CLEAR,32XX JEFFERSON AV,39.139643,-84.513028
0924877B-257C-452B-9587-F338F9943B35,2023-11-18,SAT,15,1 - CLEAR,38XX READING RD,39.15429,-84.4808
092E16BF-2FA7-4BB0-9776-B8FC5E8EEEC4,2023-04-11,TUE,12,1 - CLEAR,44XX W MITCHELL AV,39.168058,-84.513853
0932E1B7-82C0-4A84-8917-219D37FBE629,2023-09-15,FRI,15,1 - CLEAR,29XX HACKBERRY ST,39.129698,-84.474361
0935BC54-4BEE-4628-A05A-809087CF9499,2023-05-05,FRI,22,1 - CLEAR,10XX W MCMILLAN ST,39.124611,-84.533919
09372F47-5D93-4B26-BF6D-D8739F7BC5F2,2023-06-04,SUN,3,1 - CLEAR,34XX W 8TH ST,39.105351,-84.566771
093ABC9B-D85A-4B27-B1D1-AAF925654C0A,2023-06-16,FRI,16,2 - CLOUDY,23XX ST JAMES AV,39.125574,-84.488972
093DA89D-0236-4735-8584-E391AAFF6341,2023-04-14,THU,11,1 - CLEAR,32XX GLENDORA AV,39.139551,-84.510531
093DF816-AB9E-4329-96FA-2C5E1BA66D40,2023-09-02,SAT,21,1 - CLEAR,62XX BANNING RD,39.202386,-84.564451
093EB0A8-DC84-4E7B-9040-C02CCFB32C93,2023-09-07,THU,16,1 - CLEAR,30XX JEFFERSON AV,39.135172,-84.511333
0941660C-9174-4E9D-A2DA-D2D252D7279B,2023-09-30,SAT,12,1 - CLEAR,21XX HIGHLAND AV,39.120011,-84.504181
09420F8D-1EE1-4B3A-8870-E537DF5C56DE,2023-09-07,THU,15,1 - CLEAR,50XX DUCK CREEK RD,39.164691,-84.409601
09425570-B59C-400E-8927-F39F32AA55BF,2023-12-27,WED,20,1 - CLEAR,11XX BEECH AV,39.111823,-84.577539
0947679E-2500-43E4-A60D-6BAE549FF24B,2023-10-18,WED,16,1 - CLEAR,35XX COLUMBIA PY,39.118022,-84.438157
0949CF28-5C54-4D0B-9A98-5741962ADEF7,2023-09-08,THU,13,1 - CLEAR,28XX FOURTOWERS DR,39.133861,-84.596571
0949D85D-E19D-41FB-B945-E994A04674FE,2023-02-02,THU,9,1 - CLEAR,51XX GLENWAY AV,39.124003,-84.602434
0955F5EF-08C7-4AA9-B0C0-0EA421151055,2023-02-26,WED,16,1 - CLEAR,24XX OHIO AV,39.125491,-84.515351
095B2152-90E9-4EB2-8989-18FFC58DD8C2,2023-08-21,MON,7,1 - CLEAR,3XX WALNUT ST,39.099144,-84.511465
095C114E-AE07-4841-88B2-BB2971FB5185,2023-01-15,SUN,15,1 - CLEAR,4XX ELM ST,39.100551,-84.515301
0961FB89-6193-4454-96E3-E3E7D1A79809,2023-12-04,MON,12,4 - RAIN,31XX BELLEWOOD AV,39.178315,-84.427578
096F27F1-5010-4B47-B1F9-7FB74138EF6D,2023-07-20,THU,2,1 - CLEAR,16XX QUEEN CITY AV,39.127271,-84.550851
097493AA-7AB2-469F-8579-F689E2A8207B,2023-10-02,MON,16,1 - CLEAR,30XX FERGUSON RD,39.139096,-84.598576
097736A1-BD02-4C70-AA78-BFFC17EED45E,2023-04-14,FRI,21,1 - CLEAR,30XX WARDALL AV,39.157389,-84.598209
0986DF27-6E70-486B-A14B-6C9324E85BF9,2023-06-23,FRI,11,2 - CLOUDY,S I71 AT 3-4 MM,39.128561,-84.497181
098BB4FE-E4F0-448D-B7C8-B1FE9FFF0C0E,2023-06-17,SAT,12,1 - CLEAR,59XX MONTICELLO AV,39.200611,-84.563131
098BC1AD-CF4B-45A5-8F81-428BAF347346,2023-07-24,MON,13,1 - CLEAR,23XX QUEEN CITY AV,39.129681,-84.578661
099656E9-A137-4112-995E-719D8479CEEB,2023-01-20,FRI,13,1 - CLEAR,29XX MAPLELEAF AV,39.175691,-84.434251
09A40F57-663A-4571-95A5-10D119EBC57F,2023-09-05,TUE,15,1 - CLEAR,XX E CORRY ST,39.129081,-84.508071
09A992CE-E897-4517-9A18-CB16C5DAE6B0,2023-11-19,SUN,18,1 - CLEAR,2XX WALNUT ST,39.097451,-84.510071
09AFBA78-CCFD-4D8D-B0E1-6B315963EBE3,2023-02-26,SUN,22,1 - CLEAR,30XX SPRING GROVE AV,39.137014,-84.541231
09B69E59-A476-41FF-92CA-C3E50795853B,2023-04-08,SAT,9,1 - CLEAR,17XX ANDINA AV,39.175701,-84.467166
09BBFE05-0982-414A-8636-202CD03E4870,2023-05-05,THU,12,1 - CLEAR,77XX READING RD,39.204032,-84.458177
09BE0F8B-7723-484D-8D2B-6A1508C557F5,2023-11-16,THU,12,1 - CLEAR,XX E MCMILLAN ST,39.135516,-84.533268
09C0DFAD-F998-4ABC-B3E0-0E5AD7581F8F,2023-12-16,SAT,22,4 - RAIN,X E NORWOOD LATERAL,39.173361,-84.483411
09C5EF7C-220B-4E29-BA27-43CBDB1BD915,2023-07-19,TUE,0,2 - CLOUDY,S I75 AT 1-1 MM,39.104971,-84.529211
09C6AB76-B65A-49A2-8B1C-9F849C955506,2023-10-25,WED,7,2 - CLOUDY,32XX VICTORY PY,39.138197,-84.482614
09C8D3C5-77FD-4058-A9CE-599703B67416,2023-07-08,SAT,22,1 - CLEAR,8XX MAIN ST,39.105451,-84.511371
09C9E800-1552-4A10-92D7-D6287C45A3F3,2023-10-14,SAT,18,1 - CLEAR,XX WEST MARTIN LUTHER KING JR DR,39.136491,-84.510471
09CA5625-9010-49CC-9A31-AFD5C1F01D91,2023-03-03,THU,14,2 - CLOUDY,32XX JEFFERSON AV,39.137981,-84.513321
09CD1CDB-0D84-4E8B-8414-5921BA02725D,2023-12-01,FRI,13,4 - RAIN,30XX BURNET AV,39.135254,-84.501201
09D0A008-7788-4D7B-9127-0722B94DD031,2023-01-31,TUE,10,2 - CLOUDY,20XX FRANCIS LN,39.119406,-84.486411
09D3BEBB-DB1C-49D3-A8EA-1676B8982C65,2023-01-08,SUN,18,1 - CLEAR,16XX HARRISON AV,39.126244,-84.552063
09D488FD-0132-43E3-AEB6-8BE6DE599343,2023-12-20,WED,15,1 - CLEAR,45XX RIVER RD,39.077899,-84.629061
09D70D12-B3D0-440E-9603-FC015AEE7789,2023-02-17,FRI,16,1 - CLEAR,59XX WINTON RD,39.198367,-84.521915
09D83B8F-7EE8-4B76-B300-388DED551E4A,2023-04-02,SUN,10,1 - CLEAR,42XX WESTHAVEN AV,39.111921,-84.584363
09DA97B6-E339-45D6-B5E3-6DE713A023CB,2023-02-17,FRI,8,1 - CLEAR,6XX W 6TH ST,39.100798,-84.522811
09DC28B1-E294-4EB9-B918-6E9370C13972,2023-12-02,SAT,17,1 - CLEAR,4XX LINN ST,39.098703,-84.525831
09E09989-8B49-47D3-9884-82C811B8E2C8,2023-06-17,SAT,13,1 - CLEAR,E I275 AT 73-4 MM,39.058992,-84.425332
09E1CF67-6C00-4D28-B872-2A81284EFD25,2023-10-01,SUN,16,1 - CLEAR,12XX QUEBEC RD,39.116742,-84.574404
09E5C4DE-D628-425C-A938-2215AE354EB3,2023-04-02,SUN,11,99 - OTHER/UNKNOWN,33XX RUTHER AV,39.142513,-84.512147
09E79D40-DDB7-470F-AE20-44A776F50AE5,2023-11-07,TUE,12,1 - CLEAR,N I75 AT 0-4 MM,39.100035,-84.520301
09EAC872-3231-492D-A063-993B57839CFC,2023-04-23,SUN,16,1 - CLEAR,6XX STATE AV,39.100751,-84.554601
09EB2F34-B07E-42E5-982A-BED7C5394567,2023-10-21,SAT,1,1 - CLEAR,S I71 AT 3-6 MM,39.133171,-84.494781
09F2F2AC-EB49-4B9D-8040-8A5187675968,2023-02-22,WED,17,1 - CLEAR,2XX W CENTRAL PKWY,39.107456,-84.517706
09F5C08E-17EE-4B33-8230-8704CAEEBEE0,2023-07-26,WED,17,2 - CLOUDY,5XX FREEMAN AV,39.098941,-84.533911
09FE3144-7761-4B7E-8825-6940E41FB003,2023-02-19,SUN,13,1 - CLEAR,45XX READING RD,39.167938,-84.469713
0A02E5A5-391A-4957-B003-3B5B1A748667,2023-02-15,WED,7,1 - CLEAR,15XX SUMMIT RD,39.202082,-84.459934
0A143CD7-475C-4207-B767-19C04EFFEAF6,2023-08-10,THU,13,1 - CLEAR,6XX LINN ST,39.100751,-84.529736
0A153700-465A-4DF0-B432-09F0FCA2E4E0,2023-12-17,SUN,1,4 - RAIN,4XX RACE ST,39.10042,-84.51582
0A1CB61F-53F0-433D-ACBC-4CBDE335EEB6,2023-05-22,MON,3,1 - CLEAR,N I75 AT 0-5 MM,39.099293,-84.522518
0A23E20F-C8BC-42DD-AF53-A961E5683FEB,2023-10-18,WED,14,1 - CLEAR,16XX WAVERLY AV,39.128469,-84.549706
0A251ABF-EA62-408B-9843-AFAEE98D2936,2023-01-11,WED,15,4 - RAIN,49XX TRAIL RIDGE RD,39.173974,-84.568639
0A2DBD97-8611-4213-B779-68DF2EDA57A8,2023-12-05,TUE,8,4 - RAIN,57XX WINTON RD,39.198121,-84.523991
0A35CC0F-9175-4715-88D0-82DD14167FE6,2023-03-02,THU,19,1 - CLEAR,42XX COLERAIN AV,39.162332,-84.550682
0A39337D-EC5C-4CFD-9A78-BBBEDE74BC0D,2023-09-02,FRI,19,1 - CLEAR,64XX COFFEY ST,39.097461,-84.379471
0A3B703A-4FA7-4774-8602-FB67780DA6DD,2023-07-07,TUE,17,1 - CLEAR,8XX ROCKDALE AV,39.144041,-84.484735
0A3DA212-A23B-44B0-8305-01CA277BC125,2023-02-11,SAT,23,1 - CLEAR,63XX BEECHMONT AV,39.087191,-84.382201
0A3EDEE7-6A6A-41C0-8BD4-DE8AECE24620,2023-08-03,THU,23,1 - CLEAR,42XX COLERAIN AV,39.162838,-84.552716
0A406EC3-6F36-4237-9B4C-A8AED1ABA146,2023-05-18,THU,6,1 - CLEAR,84XX ANTHONY WAYNE AV,39.215371,-84.462461
0A41C4E3-7E8C-4D29-ADFF-751C69841328,2023-02-28,TUE,12,1 - CLEAR,32XX HARRISON AV,39.153201,-84.603985
0A49BABB-8A2C-4DD9-BE2F-53FB6D1A1A59,2023-04-08,SAT,16,1 - CLEAR,25XX FERGUSON RD,39.132791,-84.599791
0A4AE8BD-521C-4703-9974-1026B98FC417,2023-03-17,FRI,23,1 - CLEAR,16XX MAIN ST,39.104098,-84.511609000000007
0A4D3855-BD85-4717-9330-508CDEC95310,2023-07-10,MON,11,1 - CLEAR,9XX E MCMILLAN ST,39.127071,-84.490877
0A54DDA3-EB48-430D-A5CD-1991A80030D3,2023-07-21,FRI,13,99 - OTHER/UNKNOWN,12XX DEWEY AV,39.115811,-84.582041
0A585552-2853-446E-B3D5-BEFD98125F52,2023-09-06,WED,16,1 - CLEAR,40XX RIVER RD,39.077194,-84.610463
0A59C471-FDF8-410F-983A-839C77AA5FE8,2023-01-15,SUN,18,1 - CLEAR,29XX WARSAW AV,39.109421,-84.560301
0A5AB54F-0646-4960-84F5-637AA084E65F,2023-12-04,MON,8,1 - CLEAR,21XX ST MICHAEL ST,39.103671,-84.553649
0A609F91-E773-4B32-A913-CF448609271C,2023-02-19,SUN,20,1 - CLEAR,36XX VINE ST,39.152621,-84.510578
0A69E11D-3BEE-477C-A56B-B3639014EDB6,2023-04-05,WED,15,4 - RAIN,60XX WINTON RD,39.198807,-84.521081
0A70E9F1-8AAB-4F15-8FEF-A2C8D54089D7,2023-04-07,FRI,14,1 - CLEAR,68XX PADDOCK RD,39.191633,-84.476143
0A77C7AB-08D8-4D20-A128-C25B480AB35D,2023-08-15,TUE,14,1 - CLEAR,33XX AULT VIEW AV,39.134621,-84.418471
0A7CF14B-8E77-4A5E-863C-1F38D2076662,2023-03-27,MON,23,99 - OTHER/UNKNOWN,62XX CORBLY ST,39.094791,-84.384551
0A7F86DA-70DD-4E8B-BF9B-FCDCE5894D55,2023-04-08,SAT,16,1 - CLEAR,40XX SPRING GROVE AV,39.159201,-84.536143
0A7FF416-8722-431F-9D61-9816028F5B54,2023-05-09,TUE,12,1 - CLEAR,46XX FACTORY COLONY LN,39.159982,-84.424084
0A806023-D2BB-4478-935C-B18E3BCAF24A,2023-08-06,SUN,19,1 - CLEAR,6XX MAPLE AV,39.142047,-84.495625
0A8B68A1-D6D2-4943-930D-FD40883811A5,2023-12-14,THU,17,1 - CLEAR,1XX GALBRAITH RD,39.21229,-84.46798
0A90E4B3-0B2A-44AA-9D1E-AED2B5CBDF62,2023-07-17,MON,12,1 - CLEAR,42XX GLENWAY AV,39.112955,-84.584917
0A9DD6CF-3A9E-4566-A48F-826C0560F2F9,2023-01-31,TUE,18,2 - CLOUDY,60XX MADISON RD,39.159931,-84.391337
0AA0FC8B-AFE8-48E1-BD65-C662B4385156,2023-04-08,SAT,13,1 - CLEAR,37XX GLENWAY AV,39.114081,-84.575151
0AA15257-D058-49F5-8290-929F418D3177,2023-04-25,TUE,22,2 - CLOUDY,2XX BROADWAY ST,39.102679,-84.512116
0AA6AEC5-06ED-4BB4-9972-72CCF18D5F5F,2023-11-18,SAT,17,1 - CLEAR,50XX CAMARGO RD,39.158668,-84.381123
0AA775F3-BFB6-484B-95EB-F8E50A22725D,2023-01-09,MON,16,1 - CLEAR,61XX MONTGOMERY RD,39.181457,-84.427899
0AAE3C3D-3428-40CD-A0F4-1FC930D0FDDB,2023-11-18,SAT,18,1 - CLEAR,7XX W 6TH ST,39.100859,-84.526204
0AB1C7B2-CC86-4549-B3C8-B1631CA54733,2023-10-21,SAT,19,1 - CLEAR,13XX HOPPLE ST,39.136621,-84.540721
0AB9265E-12B4-4287-9079-37F70B17118A,2023-03-10,FRI,12,1 - CLEAR,5XX MARTIN LUTHER KING E DR,39.135719,-84.497807
0ABE7111-C39E-453C-A170-7B1D7F85107D,2023-07-06,THU,16,1 - CLEAR,80XX VINE ST,39.206391000000004,-84.474281
0AC416D5-A647-40B4-A3AC-BCE3ED35A544,2023-07-04,TUE,5,2 - CLOUDY,8XX EZZARD CHARLES DR,39.109741,-84.530146
0AC85F3F-C0D2-4130-881F-8E65AAEDBDCA,2023-09-06,WED,22,1 - CLEAR,8XX MAIN ST,39.106591,-84.511691
0ACA36DB-0AAA-4C6E-BC34-0CB3AA309CDE,2023-02-11,SAT,12,1 - CLEAR,25XX HIGHLAND AV,39.126481,-84.504318
0ACC4846-1C45-4CF6-A825-9DF534203B4E,2023-08-03,THU,17,1 - CLEAR,62XX CORBLY ST,39.094843,-84.386192
0AD1ED92-C80E-495E-BC6B-15974CC114C5,2023-05-01,MON,19,4 - RAIN,XX E 7TH ST,39.103891,-84.511509
0AD241D9-91E1-4422-ACC9-9F78C2F7E039,2023-03-10,FRI,11,1 - CLEAR,2XX MOHAWK ST,39.120911,-84.522971
0AD3EBB8-FE2B-4D26-95FD-66FB31EC2359,2023-10-18,WED,21,1 - CLEAR,32XX MIDWAY AV,39.136881,-84.609902
0AD5BE00-3E94-4458-A7BC-E52D769F3D26,2023-07-21,FRI,0,1 - CLEAR,24XX QUEEN CITY AV,39.130161,-84.584917
0AD6FF83-A0CC-4016-8E77-B1B48741C1CD,2023-03-29,WED,11,1 - CLEAR,44XX PLAINVILLE RD,39.153911,-84.380581
0ADAD815-746B-44D6-AFB5-F72825ACFB24,2023-09-25,MON,13,2 - CLOUDY,16XX VINE ST,39.112276,-84.516082
0AE142EE-6728-4908-86ED-6C6B8BD1F960,2023-02-10,FRI,5,1 - CLEAR,E I74 AT 18-9 MM,39.155836,-84.544218
0AE8B29D-EBB6-4854-8C73-F80D8C87DF94,2023-08-01,TUE,20,1 - CLEAR,74XX PADDOCK RD,39.196277,-84.476891
0AE972CD-6FE8-44D2-BFCF-C2A3BC107F79,2023-08-24,THU,8,4 - RAIN,37XX COLUMBIA PY,39.109705,-84.432111
0AEC6A0F-69A2-4D52-B514-D455DFD029DF,2023-10-18,WED,14,1 - CLEAR,42XX COLERAIN AV,39.161582,-84.551391
0AF25125-144F-4CCE-99F3-7EC347FEAA94,2023-12-22,THU,12,1 - CLEAR,61XX HAMILTON AV,39.203051,-84.547181
0B085C0E-878E-42C8-BB4A-06C21E95F5EA,2023-04-09,SUN,4,1 - CLEAR,4XX W KING DR,39.134211,-84.519131
0B11DEC9-4120-4F1B-A1EB-19C26B49557F,2023-09-18,MON,11,1 - CLEAR,34XX BURNET AV,39.142251,-84.500401
0B16FB2F-A99C-43C1-8C48-10DCC0BFAB2C,2023-05-05,FRI,10,1 - CLEAR,25XX HARRISON AV,39.142261,-84.583621
0B179347-C98F-4E54-95E3-93CF9666D88C,2023-10-20,FRI,16,1 - CLEAR,22XX BEECHMONT AV,39.093811,-84.388541
0B1FBE8C-7E27-47D0-A2F4-6F9D5BC69E1E,2023-05-02,TUE,11,1 - CLEAR,1XX W MITCHELL AV,39.162632,-84.508141
0B293D95-B092-497D-A133-14484363F27D,2023-04-13,THU,19,1 - CLEAR,37XX WESTMONT DR,39.125231,-84.570931
0B2CAE84-409E-4386-BD23-6366E50298D6,2023-08-28,MON,7,1 - CLEAR,S I75 AT 0-5 MM,39.099204,-84.522971
0B3CE680-F52C-4506-A6FE-FFC8DC9004A9,2023-07-17,MON,17,1 - CLEAR,16XX HARRISON AV,39.126233,-84.549756
0B41BEDE-258C-4D7F-92EC-2EC752D77353,2023-11-07,TUE,16,1 - CLEAR,XX W LIBERTY ST,39.112661,-84.517721
0B4229DF-6688-4FE5-A2E0-9EDCF9F20244,2023-03-18,SAT,10,6 - SNOW,N I75 AT 6-3 MM,39.161281,-84.513769
0B42C3B2-FFDA-4370-81F1-BDAD6165CAE7,2023-10-06,FRI,12,1 - CLEAR,23XX W 8TH ST,39.105491,-84.553381
0B4AAB47-4254-43BD-AA21-7190B869F8A6,2023-01-17,TUE,16,1 - CLEAR,S I75 AT 0-8 MM,39.099891,-84.520902
0B4B3A15-9EB6-4348-8334-40DE604B23E8,2023-12-20,WED,14,1 - CLEAR,46XX KENNEDY AV,39.159544,-84.419091
0B572BAA-755B-4951-9981-A271B89F6283,2023-10-18,WED,17,1 - CLEAR,26XX CLIFTON CREST TE,39.130751,-84.519835
0B5AE3E4-E502-4F8C-9C04-CD0A7CE1D5FA,2023-05-01,MON,12,2 - CLOUDY,13XX WESTERN HILLS VIA,39.125465,-84.544263
0B6A6604-B9C1-4976-8DA3-BC885DAA174B,2023-01-22,SUN,8,"5 - SLEET, HAIL",S I71 AT 7-7 MM,39.162909,-84.435196
0B7BD815-3D9A-4DF2-97F8-A8DCD154D1D0,2023-06-13,TUE,18,1 - CLEAR,N I71 AT 0-6 MM,39.096865,-84.515065
0B804029-3692-4B82-8960-8D87DE141321,2023-02-01,WED,13,1 - CLEAR,41XX FRANCIS AV,39.102524,-84.587242
0B8888BE-7AF7-48C3-AC49-87BD101A06B9,2023-09-01,FRI,21,1 - CLEAR,30XX JEFFERSON AV,39.135342,-84.510373
0B8AEA47-311D-470E-8666-AD6C3602AB4F,2023-03-31,FRI,14,4 - RAIN,11XX LYON ST,39.103668,-84.513163
0B90A444-70D9-4A92-A7DE-138BDB02D4E4,2023-03-17,FRI,13,4 - RAIN,77XX VINE ST,39.200317,-84.475699
0B944277-4E56-44A2-9D13-E2D07DE2206B,2023-06-22,THU,20,1 - CLEAR,25XX GILBERT AV,39.159681,-84.474421
0B96D896-330F-4351-9970-858D1662874E,2023-03-13,MON,12,2 - CLOUDY,18XX SUNSET AV,39.126361,-84.577441
0B974D5B-1DB1-4F3B-8649-4085B31A69F9,2023-03-09,THU,16,2 - CLOUDY,S I75 AT 5-6 MM,39.161498,-84.524995
0B9DD17F-1CBA-4250-8A8B-C595BF04B0C4,2023-02-24,FRI,13,1 - CLEAR,26XX JEFFERSON AV,39.129261,-84.510951
0B9EED2D-FA07-45BD-8F56-2F72E0C87D08,2023-12-13,WED,13,1 - CLEAR,48XX TRAIL RIDGE RD,39.16309,-84.56926
0BA292D2-AF1B-4621-B425-DC31C99DAEAA,2023-11-24,FRI,16,1 - CLEAR,70XX FAIRPARK AV,39.193411,-84.482191
0BA2DDD6-B7DE-4C86-8083-6D5FDD71DAF0,2023-05-04,THU,14,1 - CLEAR,27XX EUCLID AV,39.13093,-84.50731
0BA5453A-021D-4B51-B6C0-9340CD136B16,2023-08-11,FRI,10,1 - CLEAR,60XX MONTGOMERY RD,39.181411,-84.428281
0BA5C554-AC0D-4ACA-9BFE-015A212E4A44,2023-04-19,WED,15,1 - CLEAR,57XX RIDGE AV,39.177211,-84.426791
0BAB8F3F-EBF8-453A-8C02-9F028F771741,2023-08-14,MON,17,1 - CLEAR,33XX GLENWAY AV,39.113781,-84.564041
0BAF20EA-A331-41E2-8DB1-2756721E9A18,2023-01-12,THU,6,1 - CLEAR,44XX COLERAIN AV,39.165873,-84.554305
0BB681E6-59A7-4F31-BDB4-3D29FF39FB2C,2023-02-07,TUE,17,2 - CLOUDY,47XX GLENWAY AV,39.117083,-84.597549
0BBD426C-C5F1-4AAD-B760-036193A79697,2023-03-06,MON,18,1 - CLEAR,37XX EDWARDS RD,39.146583,-84.442387
0BC83BC7-439A-46A3-AC53-FED89B8DA7E8,2023-02-17,FRI,23,1 - CLEAR,20XX ELM ST,39.118027,-84.520889
0BC92D69-6554-451F-811F-0CADF82BB642,2023-11-30,THU,15,2 - CLOUDY,16XX SUMMIT RD,39.202,-84.45794
0BCCB85D-DE80-47AB-BED7-022AD70B7E6C,2023-08-18,FRI,10,1 - CLEAR,24XX BEEKMAN ST,39.127171,-84.545963
0BD6E9F4-6694-4E88-AADE-7A876EB76CB7,2023-07-29,SAT,13,1 - CLEAR,3XX CENTRAL AV,39.103781,-84.519821
0BD74C27-B2AB-4241-8B2B-055844DFC51D,2023-10-03,TUE,14,1 - CLEAR,30XX KERPER AV,39.134417,-84.491239
0BDB222B-5F54-414D-8C43-78EC14CA89D5,2023-06-11,SUN,23,4 - RAIN,S I75 AT 8-8 MM,39.187775,-84.481385
0BDBBE6C-1579-4708-A6E3-525CA9CF882A,2023-01-19,THU,15,1 - CLEAR,48XX SPRING GROVE AV,39.169261,-84.510541
0BE04378-1F9E-464E-8A8A-E432E1877BDD,2023-12-23,SAT,22,2 - CLOUDY,3XX W 6TH ST,39.10207,-84.51885
0BE29F54-E03A-42F4-B99C-1E8759F578D0,2023-12-23,SAT,10,2 - CLOUDY,25XX AUBURN AV,39.127383,-84.509038
0BE2DC19-7232-4519-9A09-7E9F70CBEB75,2023-10-12,THU,13,1 - CLEAR,19XX QUEEN CITY AV,39.126801,-84.561568
0BE32625-5AEC-4BBD-8489-C5CC743B3A22,2023-03-26,SUN,13,1 - CLEAR,16XX WESTWOOD AV,39.125685,-84.547918
0BEDD5ED-1C03-4FAE-9B9F-2591895E1B69,2023-03-24,FRI,10,4 - RAIN,28XX STANTON AV,39.130213,-84.493015
0BEFE88E-6AED-4656-9B1B-28FD53309DFE,2023-07-05,WED,12,1 - CLEAR,52XX GLENWAY AV,39.124016,-84.603521
0BF8EECF-82AE-4A6D-AEE5-8442834D3E9E,2023-02-28,SUN,13,99 - OTHER/UNKNOWN,16XX TUXWORTH AV,39.118619,-84.597845
0BFA0F3C-BE2B-4556-AAB0-40F9946A0CF1,2023-10-22,SUN,23,1 - CLEAR,W 562 AT 0-5 MM,39.173791,-84.481225
0C005800-4E97-4DE4-A420-D6402C1E9542,2023-09-30,SAT,10,1 - CLEAR,48XX MARBURG AV,39.162081,-84.423791
0C04535A-74D8-41AC-A5B7-0304F8471F34,2023-09-15,FRI,15,1 - CLEAR,70XX GLENMEADOW LN,39.188391,-84.468621
0C050C5D-59EA-4B88-94BD-F2BF3DF3A9F6,2023-11-29,WED,7,1 - CLEAR,8XX WILLIAM HOWARD TAFT RD,39.128661,-84.490073
0C0F4E3E-4A01-496C-A1C6-2974942DE7FC,2023-04-19,TUE,15,1 - CLEAR,N I75 AT 9-9 MM,39.199605,-84.469001
0C0FCC14-DA69-4634-9EC7-FE926B473507,2023-07-22,SAT,16,1 - CLEAR,S I75 AT 6-7 MM,39.165581,-84.505871
0C10935B-53A6-4986-A666-C6B78697DC6B,2023-11-17,FRI,19,2 - CLOUDY,36XX HARVEY AV,39.149454,-84.495469
0C13D9CC-1D20-49B8-BDEA-29209A1E594E,2023-07-10,MON,16,1 - CLEAR,5XX W MEHRING WY,39.094341,-84.519121
0C1A0B16-AA63-444D-8B5F-FFE1219C245F,2023-02-27,MON,0,1 - CLEAR,0.X W NORWOOD LATERAL,39.173245,-84.485291
0C216553-51BC-4CED-BC1F-2D4CB6AD0817,2023-10-20,FRI,7,2 - CLOUDY,N I75 AT 1-3 MM,39.106371,-84.516581
0C263DFD-5773-4B1B-A68E-85DF39B6A4BD,2023-09-11,MON,13,1 - CLEAR,34XX BURNET AV,39.142861,-84.500711
0C2CB61B-7C8C-4772-A8F2-436124ED9F25,2023-09-15,FRI,12,1 - CLEAR,32XX JEFFERSON AV,39.142281,-84.514763
0C2CD713-6898-46CE-A2BB-B258A80876EE,2023-02-01,WED,12,1 - CLEAR,48XX RIDGE AV,39.163227,-84.419801
0C2CE108-461C-4B3A-A7CF-A5D7270F50B3,2023-10-25,WED,20,1 - CLEAR,9XX COVEDALE AV,39.111881,-84.607245
0C2D305F-7AB9-46DD-8FBC-8BE5A98A8119,2023-10-09,MON,15,1 - CLEAR,34XX CLIFTON AV,39.144044,-84.520102
0C2F4458-2B7F-41FE-8741-C202C0E49B4A,2023-02-22,WED,7,1 - CLEAR,51XX FISHWICK DR,39.18331,-84.48307
0C3680FE-DC0A-457F-8163-6827A3CA8FD4,2023-09-14,THU,17,1 - CLEAR,25XX CLIFTON AV,39.127303,-84.521453
0C37D8F0-7CAA-4E38-99D7-62488FE47B3B,2023-11-23,THU,3,1 - CLEAR,8XX ENRIGHT AV,39.10595,-84.57408
0C38F287-1943-4103-9CF0-B7D6EAB0BD11,2023-10-18,WED,8,2 - CLOUDY,3XX LUDLOW AV,39.143768,-84.519984
0C393E9B-B8CA-4DC4-A168-A7BB81248490,2023-09-18,MON,11,2 - CLOUDY,S I75 AT 10-3 MM,39.204265,-84.466847
0C3B9DBB-612A-422F-A3D2-8666229A205B,2023-07-10,MON,12,1 - CLEAR,41XX HAMILTON AV,39.161306,-84.540288
0C49EF48-CC93-49E7-8F45-86AEA0C0D8A1,2023-07-29,SAT,15,1 - CLEAR,21XX SEYMOUR AV,39.183399,-84.457212
0C4B6F26-9C56-4EBD-8422-01B68EEF6180,2023-05-17,WED,20,1 - CLEAR,33XX WERK RD,39.141331,-84.614531
0C50D016-DB56-4253-AEB9-1E201F67D9E3,2023-07-12,WED,22,1 - CLEAR,35XX RIVER RD,39.082099,-84.586761
0C552FFD-5DC1-4C08-A7A4-51E736E4E9BF,2023-07-24,MON,17,4 - RAIN,36XX KELLOGG AV,39.112471,-84.435781
0C553F51-5BA4-4D7A-B465-C0AED961E2BF,2023-10-29,SUN,1,4 - RAIN,23XX W 8TH ST,39.104741,-84.553931
0C591605-8A4B-4511-92E0-E4B56A9307AF,2023-03-29,WED,16,1 - CLEAR,82XX VINE ST,39.210931,-84.474355
0C5ACB21-5186-425A-945D-78637EC2FA8A,2023-12-31,SUN,17,4 - RAIN,6XX GHOLSON AV,39.148734,-84.492225
0C5C2183-0458-49E5-B07D-2820FDF717DC,2023-10-31,TUE,17,2 - CLOUDY,2XX WOOLPER AV,39.149671,-84.517721
0C60D98D-BB7A-4EE3-B12E-9BB86C795D12,2023-12-20,WED,13,1 - CLEAR,20XX READING RD,39.118547,-84.500418
0C63B259-81B0-46AA-B88B-1DDBBD0D3326,2023-08-24,THU,7,4 - RAIN,2XX W KING DR,39.135921,-84.514231
0C648DAE-C9D7-4689-AB10-12903F67D9D4,2023-01-16,MON,2,1 - CLEAR,10XX GEST ST,39.105641,-84.532718
0C675CD1-0FC6-41FA-A16D-D2A59C8AFA22,2023-12-01,FRI,11,4 - RAIN,1XX WARNER ST,39.124976,-84.520103
0C725678-2F04-449E-A6BB-510EB7B157D7,2023-12-01,FRI,19,1 - CLEAR,1XX W MITCHELL AV,39.16133,-84.50686
0C72B4F8-1DD0-4676-8923-B8282E00ABC3,2023-04-27,WED,9,1 - CLEAR,S I75 AT 8-6 MM,39.183363,-84.484573
0C775888-5E95-445C-A757-BFDBC9B407EB,2023-01-06,FRI,17,1 - CLEAR,S I75 AT 3-0 MM,39.119349,-84.535712
0C777B61-C4C4-4266-8054-7BCE8E65B0FF,2023-03-20,MON,14,1 - CLEAR,34XX WABASH AV,39.141631,-84.463911
0C790DA0-B80D-495F-B7F8-CD6916C212D0,2023-07-07,FRI,22,1 - CLEAR,1XX E ROCHELLE ST,39.134884,-84.505065
0C7ECEA6-3890-450A-80D0-4B85EC6FEC58,2023-01-12,THU,8,4 - RAIN,55XX HAMILTON AV,39.191625,-84.546321
0C7F852D-BCFE-4606-9A6B-CCC462D841C7,2023-11-09,THU,16,2 - CLOUDY,S I71 AT 4-0 MM,39.128081,-84.498091
0C80EA52-2F87-477A-979F-1607598861AB,2023-05-22,MON,1,1 - CLEAR,11XX CARSON AV,39.112845,-84.572198
0C874D5B-051F-4A24-8FA1-92ACFFADAF34,2023-12-09,SAT,16,2 - CLOUDY,25XX MAY ST,39.127591,-84.494391
0C89B6A6-81F9-4980-BE28-7DDBC899C7C9,2023-03-20,MON,7,1 - CLEAR,2XX E RONALD REAGAN HW,39.205238,-84.465585
0C8BFF34-440B-4957-9EB6-3175DE70B557,2023-11-25,SAT,12,1 - CLEAR,50XX COLERAIN AV,39.177238,-84.561938
0C91AEF6-B33D-4D63-966B-1ACC2287FA0C,2023-08-09,WED,21,2 - CLOUDY,25XX VINE ST,39.159581,-84.511758
0C96E7BF-D017-415A-BB64-7D11EB1FFFD9,2023-04-14,FRI,15,1 - CLEAR,27XX CLIFTON AV,39.132535,-84.520091
0C9B82E2-CE08-4D27-826B-09F06F3CD5EB,2023-09-29,FRI,22,1 - CLEAR,20XX W NORTH BEND,39.202812,-84.559675
0C9C7143-347A-453E-A7BB-66B65EB5306B,2023-02-02,THU,19,1 - CLEAR,49XX CLEVES WARSAW PI,39.117511,-84.599991
0CA1270B-E0E3-41C6-A34B-3D90C1682449,2023-06-19,MON,8,1 - CLEAR,31XX CLIFTON AV,39.138011,-84.520371
0CA52D10-C20D-43A0-9FFD-A3CE88370AE7,2023-05-12,FRI,11,1 - CLEAR,18XX LOSANTIVILLE AV #1,39.192204,-84.459847
0CB23DCF-B9CF-49B0-A310-42E7D5EF1639,2023-10-16,MON,12,2 - CLOUDY,18XX QUEEN CITY AV,39.126367,-84.562071
0CB2B19E-5DE1-4699-8A4E-D25BAAADA203,2023-05-18,THU,13,1 - CLEAR,16XX CENTRAL PY,39.115146,-84.521641
0CB902B0-D198-4EA4-986D-F4EBA1477D77,2023-08-22,MON,23,1 - CLEAR,43XX READING RD,39.168421,-84.471131
0CB90720-D697-4238-B9A3-79520A8822F3,2023-01-20,FRI,11,1 - CLEAR,61XX GLADE AV,39.081911,-84.389571
0CC0E3DA-9015-455F-9B71-F994CD218EC2,2023-01-11,WED,10,2 - CLOUDY,S I75 AT 9-6 MM,39.195839,-84.474144
0CC3C7D9-E3A6-467C-B2A0-13443891A702,2023-04-09,SUN,22,1 - CLEAR,16XX HEWITT AV,39.137638,-84.475372
0CC4CACF-537B-47C9-B401-0799174D0D2F,2023-11-03,FRI,13,1 - CLEAR,21XX BEECHMONT AV,39.093365,-84.386336
0CC734BB-051B-472A-9E96-0040B85851B4,2023-01-26,THU,17,4 - RAIN,X W MITCHELL AV,39.159474,-84.507711
0CC8005F-4302-4F82-9BC8-74DC51FA853B,2023-11-28,TUE,13,1 - CLEAR,40XX BEEKMAN ST,39.159716,-84.551868
0CC825DC-DBA8-4F9F-8F1C-16A28660E1B1,2023-08-24,THU,7,4 - RAIN,46XX WINTON RD,39.174436,-84.519208
0CCD1FE0-59A0-43D7-825C-45A86F56ED71,2023-05-06,SAT,0,1 - CLEAR,48XX PADDOCK RD,39.174458,-84.478562
0CD90E69-19D2-4047-A959-48BF0548AB94,2023-11-10,FRI,16,1 - CLEAR,57XX LESTER RD,39.177986,-84.432168
0CE3CDDA-A8C6-491D-AA9D-2CE1AC2EF287,2023-11-03,FRI,19,1 - CLEAR,5XX HOWELL AV,39.14235,-84.52518
0CE4D316-C92D-4A62-8918-01E518C5D2B4,2023-11-15,WED,18,1 - CLEAR,2XX W GALBRAITH RD,39.214521,-84.482881
0CE52419-D3F7-4EA7-9900-D3C2BCECE0E4,2023-12-23,SAT,9,2 - CLOUDY,43XX ERIE AV,39.152571,-84.400751
0CE7E3B9-41E5-4202-AFD3-6FBBFBE539C4,2023-05-05,FRI,22,1 - CLEAR,14XX CEDAR AV,39.198601,-84.543448
0CF50E8E-4883-46C0-BA64-88D08745840C,2023-12-02,SAT,11,1 - CLEAR,32XX HARRISON AV,39.15495,-84.60349
0CF96B4E-8B5A-40E3-88BC-9FB10C51C3C4,2023-01-31,TUE,16,1 - CLEAR,54XX COLERAIN AV,39.188394,-84.570065
0CFA5430-AB50-482F-B3B3-3C8BB7978C43,2023-10-06,FRI,13,1 - CLEAR,16XX RACE ST,39.115024,-84.517293
0CFA74EF-AA57-4781-B9B5-94D3C1D2240C,2023-11-20,MON,15,4 - RAIN,51XX COLERAIN AV,39.182531,-84.566571
0CFD6784-4889-410B-917B-26B19558D80E,2023-04-20,THU,5,1 - CLEAR,28XX BEEKMAN ST,39.136941,-84.549124
0CFF3604-ED4C-4FBD-BE96-85FB373F17AE,2023-12-14,THU,15,1 - CLEAR,W I74 AT 19-0 MM,39.090321,-84.323731
0D065A4F-EEC6-49CE-A339-9A71714C8872,2023-01-07,SAT,2,2 - CLOUDY,6XX WALNUT ST,39.104151,-84.511061
0D07DD7A-3D2F-449F-B241-D2A91A729162,2023-09-21,THU,9,1 - CLEAR,7XX CLARK ST,39.104981,-84.524861
0D090775-1D20-496D-8FE8-B378D0254829,2023-01-12,THU,17,2 - CLOUDY,7XX VINE ST,39.103868,-84.513121
0D097E3F-270D-415D-B0C3-C4DAF1DFDD6D,2023-08-11,FRI,17,1 - CLEAR,47XX STEWART AV,39.157901,-84.397131
0D098B52-D16E-47FB-B2A0-8FC54057D496,2023-06-01,THU,19,1 - CLEAR,49XX GLENWAY AV,39.121864,-84.600488
0D0A883A-24C0-475F-8D64-171EF183844A,2023-05-01,MON,7,4 - RAIN,N I75 AT 2-7 MM,39.123388,-84.533693
0D0B3042-A5A2-48F8-8F86-D79AE485D9E8,2023-02-03,FRI,8,1 - CLEAR,19XX QUEEN CITY AV,39.127079,-84.564071
0D13B734-195A-4480-AE63-0132DB559F55,2023-03-10,FRI,13,1 - CLEAR,25XX SARVIS CT,39.130854,-84.570321
0D19E982-A5C3-47BD-ACFF-E087B6C017EE,2023-03-10,FRI,8,2 - CLOUDY,23XX EAST HILL AV,39.135351,-84.458491
0D1B7FFE-0C08-47F6-BA94-0D9680DE8D93,2023-03-26,SUN,17,1 - CLEAR,18XX WESTWOOD NORTHERN BV,39.142261,-84.553774
0D1C3A58-24F0-4A0F-8A8C-93ACCEDC2B67,2023-01-19,THU,12,1 - CLEAR,13XX MAIN ST,39.11599,-84.45401
0D1D89DB-21EF-4C03-84EF-B223E84D3A05,2023-09-03,SUN,22,1 - CLEAR,3XX E LIBERTY ST,39.112445,-84.510041
0D2529A1-C73E-4490-A47B-DEEE0D935B63,2023-07-22,SAT,19,1 - CLEAR,64XX DALY RD,39.208481,-84.531791
0D25E813-AC8C-443E-87EF-8B38E29A1785,2023-08-24,THU,7,4 - RAIN,69XX VINE ST,39.192364,-84.482846
0D2C18A8-0AFC-4B2E-9E8A-3A053DD970D1,2023-07-15,SAT,10,4 - RAIN,S I75 AT 8-1 MM,39.178901,-84.486443
0D3A0249-EED9-4A49-89AB-E5B33A75687B,2023-05-01,MON,22,4 - RAIN,1XX W KING DR,39.136548,-84.514173
0D3BB6A3-56F1-4FDF-AC86-80E65B995229,2023-02-07,TUE,16,2 - CLOUDY,N I71 AT 0-8 MM,39.098751,-84.510975
0D3CF0E5-E30C-4763-AD42-5FF49C60F609,2023-03-08,MON,17,2 - CLOUDY,34XX HAZELWOOD AV,39.151271,-84.596251
0D3EB42F-FF46-4B3A-ADED-DEC413BF1B76,2023-05-23,MON,12,1 - CLEAR,43XX COLERAIN AV,39.162611,-84.551341
0D4107D1-AD95-4178-B024-93A961E63B93,2023-10-20,FRI,13,2 - CLOUDY,8XX REEDY ST,39.105911,-84.504211
0D460192-E2D3-44E9-9B19-57522170DACB,2023-01-24,TUE,14,1 - CLEAR,2XX E GALBRAITH RD,39.212821,-84.465411
0D496A4C-1D45-4A55-BA98-0EB7AB1B332C,2023-03-11,SAT,9,1 - CLEAR,26XX EUCLID AV,39.129561,-84.508854
0D4A09CA-01DF-4E19-8381-960464A0AF65,2023-12-02,SAT,7,1 - CLEAR,2XX E RONALD REAGAN HW,39.216451,-84.499466
0D4A570C-EC88-4EF5-86F3-1AE65F924303,2023-01-21,SAT,22,1 - CLEAR,N I75 AT 10-4 MM,39.205585,-84.464765
0D4B1F8C-C1FA-44DE-9251-D33F35470F20,2023-08-21,SUN,11,1 - CLEAR,23XX FERGUSON RD,39.127595,-84.597609
0D4E2192-A8DF-4B7C-B875-87876CA0F196,2023-04-23,SUN,6,1 - CLEAR,15XX W NORTH BEND,39.202631,-84.546451
0D53BD98-BAE9-41F7-B998-70695F42D97C,2023-05-11,THU,20,1 - CLEAR,1XX W MITCHELL AV,39.161861,-84.509171
0D54493A-47CC-4EC6-B15C-B934D5F04517,2023-02-16,THU,8,4 - RAIN,32XX READING RD,39.137941,-84.495635
0D54D2CD-9C35-4002-961B-8118227F42F7,2023-08-11,FRI,10,1 - CLEAR,21XX KIPLING AV,39.202844,-84.564181
0D559FB1-E662-4FC7-A146-5C916AADCF1B,2023-04-27,THU,22,4 - RAIN,37XX READING RD,39.149956,-84.486641
0D57019C-AF56-4198-9574-70D09B984F5C,2023-01-23,MON,17,2 - CLOUDY,45XX KELLOGG AV,39.096394,-84.430381
0D58AA22-E989-4A76-8CF5-55F97A254011,2023-12-05,TUE,16,4 - RAIN,S I71 AT 4-6 MM,39.137171,-84.487511
0D5BC0B4-E3A0-43F7-8F75-35290E9354B4,2023-05-17,WED,17,1 - CLEAR,3XX LUDLOW AV,39.144111,-84.519611
0D5EC8FB-56A3-41AB-9FD6-E74FEE1767A8,2023-02-22,WED,10,2 - CLOUDY,24XX VINE ST,39.126958,-84.512114
0D60A59A-B317-4919-A733-83AE73ECFB92,2023-09-20,WED,20,1 - CLEAR,3XX ELBERON AV,39.097031,-84.561411
0D62C981-7821-49D4-8AF7-6F44E787B8E8,2023-08-06,SUN,19,1 - CLEAR,54XX MADISON RD,39.160761,-84.403607
0D65722B-AF91-40F6-BB7D-42886E8EF5E5,2023-11-27,MON,16,2 - CLOUDY,22XX SPRING GROVE,39.124371,-84.536689
0D659D42-3B61-406E-9D2B-E6E64101D016,2023-06-29,THU,10,2 - CLOUDY,18XX ELM ST,39.116849,-84.519105
0D661D69-B927-4BE6-869C-95C96BD48446,2023-09-17,SUN,13,1 - CLEAR,60XX GLENWAY AV,39.140977,-84.619695
0D6BA083-92F6-415D-83B1-4C8D98786EFB,2023-02-17,FRI,11,1 - CLEAR,44XX APPLETON ST,39.156009,-84.429596
0D754048-B385-43D6-A683-C70F570E4759,2023-03-06,MON,17,1 - CLEAR,3XX ALBERT SABIN WY,39.139161,-84.501701
0D78F3AB-9329-40EF-A54E-CB021BD8BF38,2023-02-17,FRI,3,1 - CLEAR,77XX READING RD,39.204031,-84.456801
0D79EEAB-BDCB-4578-9D68-895E6EFE2016,2023-09-19,TUE,16,1 - CLEAR,60XX HAMILTON AV,39.201851,-84.546901
0D7A5770-4A2E-40F8-BA52-28B5ADF45D70,2023-07-21,FRI,11,1 - CLEAR,48XX RIDGE AV,39.161885,-84.420673
0D7C6594-44DB-4591-B8A1-03D23DC5698F,2023-09-12,TUE,13,4 - RAIN,6XX E MARTIN LUTHER KING DR,39.135029,-84.493417
0D7C66D2-96A8-4442-A840-82DCCC7D6CB4,2023-07-29,SAT,15,1 - CLEAR,55XX VERULAM ST,39.127017,-84.599031
0D81C463-AC60-49FE-8059-7CECD70135D4,2023-10-30,MON,18,1 - CLEAR,2XX W MITCHELL AV,39.165413,-84.512656
0D8263F8-345B-41E8-B293-6D7ED868F37E,2023-10-24,TUE,7,1 - CLEAR,41XX CLIFTON AV,39.163391,-84.515637
0D840A22-FA7B-49FF-B944-CACE4483E804,2023-03-09,THU,14,1 - CLEAR,6XX MAIN ST,39.104067,-84.509896
0D886C92-214D-4262-AF33-E9FFFE7E64CE,2023-08-06,SUN,1,1 - CLEAR,50XX COLERAIN AV,39.173976,-84.561491
0D9217FA-3C1C-417F-9F14-89A7EB8EB381,2023-07-11,TUE,15,1 - CLEAR,X E 3RD ST,39.099145,-84.512107
0D943700-58A3-468A-91BA-7D05611B1089,2023-01-14,SAT,3,1 - CLEAR,43XX HAMILTON AV,39.167301,-84.540571
0D94FB48-13D0-4A8A-92CB-54A882046B01,2023-09-14,THU,10,1 - CLEAR,13XX WESTERN AV,39.109561,-84.532382
0D9E9322-DF9B-4102-BA5B-E7CC40D36192,2023-01-27,THU,15,1 - CLEAR,1XX W MCMILLAN ST,39.127601,-84.517838
0DA025EB-10F2-4159-8A48-13A4AC1F7982,2023-01-05,THU,23,2 - CLOUDY,54XX KELLOGG AV,39.074106,-84.419848
0DA8E6D8-5C1F-4579-B802-8A236732175B,2023-09-13,WED,14,1 - CLEAR,66XX MONTGOMERY RD,39.189881,-84.413441
0DACE077-391F-4B90-8CF4-682EC25B6599,2023-12-20,WED,13,1 - CLEAR,7XX W 6TH ST,39.101893,-84.502131
0DB06393-C485-4030-984A-1E3E66F8D6D8,2023-06-18,SUN,4,1 - CLEAR,10XX OVERLOOK AV,39.110473,-84.600954
0DB2A144-D858-44C6-ABC4-A7408CC791F5,2023-05-24,WED,13,1 - CLEAR,24XX HARRISON AV,39.140371,-84.581681
0DB35312-E05F-4DFE-A341-D18246FB48A0,2023-08-22,TUE,9,1 - CLEAR,12XX SHERMAN STREET,39.114181,-84.537661
0DB4C590-0243-4A0E-8320-A6F05AA5DEE2,2023-05-20,SAT,9,1 - CLEAR,5XX DIXMYTH AV,39.139808,-84.525425
0DB9B078-6008-42FE-9883-BF621F349DB4,2023-05-21,SUN,9,1 - CLEAR,27XX WASSON RD,39.143991,-84.440231
0DBC641B-26EF-41B6-B837-58CAA6F4D182,2023-07-24,MON,20,1 - CLEAR,2XX W SEYMOUR AV,39.195261,-84.482926
0DBE7E22-BC0F-4AF8-BF37-5334CA4147EF,2023-03-01,WED,16,1 - CLEAR,4XX WHITEMAN ST,39.118881,-84.525281
0DC11A5F-AAF2-4D33-A3D3-F2158966CCE4,2023-11-14,TUE,13,1 - CLEAR,26XX OBSERVATORY AV,39.138109,-84.442201
0DC4FF1B-86D0-4E90-859C-350F8C23F85B,2023-09-26,TUE,21,4 - RAIN,S I75 AT 2-5 MM,39.12525,-84.53565
0DC726F5-3A9B-4556-8F27-EC2D791D998B,2023-05-04,THU,14,1 - CLEAR,22XX RAVINE ST,39.12357,-84.52497
0DCB69EB-328B-4CE0-8BE9-746AC3A152BF,2023-06-07,WED,9,1 - CLEAR,26XX HARRISON AV,39.139921,-84.589851
0DDCEC17-A142-4A2F-8337-5F08AB47687E,2023-04-20,THU,2,1 - CLEAR,S I75 AT 0-8 MM,39.101021,-84.520612
0DDD8F80-F5AA-4EFA-9367-3A0E6872D109,2023-05-21,SUN,19,1 - CLEAR,8XX WILLIAM HOWARD,39.128931,-84.492321
0DDEDCEE-3B7E-4C59-BB41-337B64BC22C0,2023-05-19,FRI,16,1 - CLEAR,28XX JEFFERSON AV,39.132158,-84.510513
0DE52978-6ABC-4FB4-8544-C2973A56C7E3,2023-12-12,TUE,16,1 - CLEAR,63XX GRACELY DR,39.107137,-84.687097
0DEA36C3-E900-4F4A-ACAF-6323AE741BA5,2023-06-04,SUN,21,1 - CLEAR,23XX W NORTH BEND RD,39.195375,-84.566366
0DEC3E29-BC76-483E-AE8C-CFD85F13E27A,2023-04-16,SUN,21,1 - CLEAR,XX W MITCHELL AV,39.161901,-84.505681
0DF1188B-6ADB-4DE6-BA5A-2DB40EDCD8C7,2023-11-20,MON,15,4 - RAIN,37XX GLENWAY AV,39.114512,-84.575155
0DF30344-5071-480D-953D-A76FB02B435D,2023-11-03,FRI,10,1 - CLEAR,7XX W KING DR,39.139246,-84.529936
0DF5BF0D-AD89-4760-905C-2571D81DB505,2023-06-01,THU,13,1 - CLEAR,75XX READING RD,39.197926,-84.458326
0DFB2003-6AD7-436B-9CC2-EB4B1009A0D5,2023-05-22,MON,9,1 - CLEAR,52XX PADDOCK RD,39.183651,-84.806172
0E05DFAA-A1FB-4E82-9E45-ABB718BB108C,2023-09-20,WED,15,1 - CLEAR,17XX DANA AV,39.146391,-84.468101
0E0D2DA4-B6F0-466E-816C-A2C4AE4DE0AF,2023-12-07,THU,7,1 - CLEAR,62XX HAMILTON AV,39.203581,-84.549181
0E0F748C-8D51-4A60-B82F-A6B4D899EDD2,2023-11-13,MON,17,1 - CLEAR,29XX HARRISON AV,39.146639,-84.595674
0E1EBFC9-1FA4-44F7-9699-11AFFD3FF590,2023-07-19,WED,14,2 - CLOUDY,63XX CENTER HILL AV,39.201191,-84.515331
0E3352ED-43D9-4DDC-903A-EE8F927A9691,2023-05-03,WED,17,1 - CLEAR,N I75 AT 3-4 MM,39.139166,-84.534463
0E36ADBB-6447-42B2-9086-CCD7CEEEEB17,2023-10-03,TUE,14,1 - CLEAR,W I74 AT 17-8 MM,39.160291,-84.562013
0E39050A-419D-4D8C-AF75-412A34BAE4CD,2023-12-18,MON,20,2 - CLOUDY,33XX ALAMO AV,39.163355,-84.422226
0E3DB253-B6D0-458D-AA32-F0014EA30B70,2023-09-20,WED,8,1 - CLEAR,3XX E 7TH ST,39.104055,-84.508455
0E3F1DAC-A829-414C-8CC9-FC1689B33A99,2023-02-23,THU,8,1 - CLEAR,23XX HARRISON AV,39.139361,-84.578001
0E45574F-9703-42FB-A7CC-3801794C53BF,2023-12-18,MON,15,6 - SNOW,20XX CENTRAL PY,39.118951,-84.523661
0E52CFBA-3A00-43F3-9933-F19AD6B6A82A,2023-10-07,SAT,18,1 - CLEAR,28XX WESTBROOK DR,39.138568,-84.594145
0E52EB67-221C-4E54-8C99-327F963E4AC8,2023-09-14,THU,17,1 - CLEAR,13XX HOPPLE ST,39.137147,-84.538615
0E565F80-80EA-4C21-BBDC-C69D78F59CF2,2023-10-14,SAT,11,1 - CLEAR,16XX COOPER ST,39.192535,-84.572081
0E56D257-9B3E-47B6-A163-15AD74D6C2B7,2023-05-31,WED,15,1 - CLEAR,46XX CHICKERING AV,39.173601,-84.511411
0E590F46-921E-4DC8-8616-3EDD99152329,2023-04-29,SAT,13,1 - CLEAR,7XX ELBERON AV,39.105801,-84.565274
0E5F78F1-88D3-4DBC-9709-20262973EB17,2023-07-10,MON,12,1 - CLEAR,25XX QUEEN CITY AV,39.128541,-84.585305
0E6232CC-8E74-4065-BD45-10440D67C25E,2023-08-29,TUE,0,1 - CLEAR,14XX WESTERN HILLS VIA,39.124361,-84.540691
0E6273B5-BBDD-4FA4-BAB4-826CDDE70CB7,2023-05-06,SAT,15,1 - CLEAR,S I75 AT 0-5 MM,39.102953,-84.453181
0E6697C8-980F-411D-B503-4C6C38008158,2023-09-21,THU,12,1 - CLEAR,2XX GILMAN AV,39.122491,-84.508481
0E6E5F6B-1E8C-405A-A55D-96E2AC329686,2023-10-30,MON,3,4 - RAIN,29XX EUCLID AV,39.133098,-84.508159
0E6E922E-33D5-4992-AC41-BC1DDF2C4EE7,2023-03-03,FRI,3,2 - CLOUDY,8XX HERMOSA AV,39.111201,-84.595551
0E6ED301-EC2E-4670-BD1A-622766AFB5DD,2023-07-02,SUN,4,2 - CLOUDY,17XX HOLLOWAY AV,39.138441,-84.472791
0E790579-5C3E-49CB-8216-5C2191D8A360,2023-02-03,FRI,16,1 - CLEAR,9XX NASSAU ST,39.120679,-84.492008
0E7C1A7E-8C41-4C4E-B1DD-2124D78C93FE,2023-10-21,SAT,8,1 - CLEAR,61XX GLADE AV,39.081114,-84.390246
0E7CF586-6FF1-4F83-A836-94C4C683D162,2023-08-09,WED,23,2 - CLOUDY,5XX VINE ST,39.101874,-84.513192
0E8137A0-4D17-43B2-B8EF-C59235106D53,2023-06-28,WED,2,1 - CLEAR,27XX CENTRAL PY,39.131887999999996,-84.531616
0E82C69E-4724-4482-B00E-4BFA66A20359,2023-11-20,MON,4,1 - CLEAR,48XX MARBURG AV,39.162131,-84.424118000000007
0E83D9B0-9B96-4317-8898-C33C3B7D78B2,2023-12-23,SAT,2,4 - RAIN,52XX COLERAIN AV,39.185301,-84.568881
0E897196-6230-4751-8776-72E27BFEE0E0,2023-05-14,SUN,12,1 - CLEAR,42XX VERNE AV,39.153603,-84.431101
0E8F16B6-126E-4E90-9654-A0FDE0D6AC81,2023-12-12,TUE,21,1 - CLEAR,41XX SHEREL LN,39.152871,-84.420051
0E914D19-C530-4786-8F5D-6B790D873BB3,2023-08-08,TUE,18,1 - CLEAR,84XX VINE ST,39.216519,-84.473615
0E99B0D7-F568-498A-BB6A-596431B8EC8C,2023-07-22,SAT,10,1 - CLEAR,2XX MCCULLOUGH ST,39.108258,-84.434521
0E9C6167-8A1A-4B28-AA6D-0CD968BC4F39,2023-05-22,MON,20,1 - CLEAR,6XX W COURT ST,39.105111,-84.524639
0EA4C936-51EE-4916-8573-ACD20A42EEA6,2023-10-29,SUN,16,4 - RAIN,7XX WADE ST,39.112321,-84.521831
0EA4D045-6C9D-451D-BF25-CB85C00B2F9B,2023-02-09,THU,18,1 - CLEAR,44XX W 8TH ST,39.110026,-84.598638
0EAA3EAA-7005-490B-A055-F264F164ACA6,2023-08-19,SAT,22,1 - CLEAR,5XX W FORT WASHINGTON WAY,39.100331,-84.501241
0EACD62F-8737-4646-A584-A30E866C5C64,2023-10-09,MON,20,1 - CLEAR,78XX DAWN RD,39.206731,-84.460181
0EB0093A-AC86-4BDE-8A74-D3AEC77BC862,2023-05-31,WED,16,1 - CLEAR,21XX SPRING GROVE AV,39.119841,-84.536808
0EB191B4-2ED0-401B-92D2-2B91914488F9,2023-10-14,SAT,3,4 - RAIN,69XX RIVER RD,39.117875,-84.697058
0EB19205-5957-4B4C-945F-B589D5F366D3,2023-11-02,THU,16,1 - CLEAR,31XX GLENMORE AV,39.140721,-84.614743
0EB2CAC4-6DE3-415D-92EF-A981C1141F70,2023-05-07,SUN,7,4 - RAIN,N I75 AT 0-2 MM,39.203357,-84.466166
0EBF65DE-1337-4EB7-9772-805910A4CC6E,2023-09-18,MON,13,1 - CLEAR,58XX COLERAIN AV,39.201228,-84.579615
0EC8697D-A125-47D9-8393-35BA5FA675FD,2023-06-08,THU,16,1 - CLEAR,N I71 AT 1-0 MM,39.099404,-84.506605
0EC9763F-2461-474F-866B-45BF237569DD,2023-11-17,FRI,14,4 - RAIN,47XX READING RD,39.17229,-84.46806
0ECC0FE6-4807-4BB4-A94F-4C0954E74F05,2023-11-20,MON,11,1 - CLEAR,84XX VINE ST,39.225095,-84.464418
0ECE2E10-D22A-4FF3-BA7D-BF570364B97A,2023-09-24,SUN,14,1 - CLEAR,9XX SUMMIT AV,39.106731,-84.558981
0ECFDAA2-E0F2-4060-A458-FAAD1FF5C54A,2023-08-18,FRI,13,1 - CLEAR,25XX VINE ST,39.127963,-84.51097
0ED70E6F-FA1E-46C5-8B74-5896C7B97ECF,2023-04-18,TUE,17,1 - CLEAR,N I75 AT 3-5 MM,39.136717,-84.532695
0ED746C2-51FD-4BFC-A1FB-B2BBE79F1DC1,2023-01-10,TUE,13,1 - CLEAR,24XX BLAINE RD,39.128061,-84.552351
0EDEDD76-BF99-4222-B2F5-6A948D10C4A4,2023-06-04,SUN,12,1 - CLEAR,42XX ROMAINE DR,39.153888,-84.409916
0EDF650B-17DF-476A-A568-A08BDCD5AC92,2023-06-23,FRI,19,1 - CLEAR,2XX MCGREGOR AV,39.159471,-84.473761
0EE51274-AE8D-46D7-ABBC-DA41086C2BD6,2023-08-16,WED,5,1 - CLEAR,9XX E MCMILLAN ST,39.126665,-84.488991
0EE5EA8E-82EE-4DDD-BE63-CBB1F8770F0E,2023-07-27,THU,9,1 - CLEAR,35XX READING RD,39.145002,-84.491015
0EF0FEA8-B0D3-4289-BAE0-14F1C185FB0D,2023-06-06,TUE,21,4 - RAIN,60XX MONTGOMERY RD,39.180896,-84.430825
0F020B0C-D058-4D06-8942-EFA2501A6E83,2023-09-27,WED,9,4 - RAIN,N I75 AT 3-8 MM,39.100172,-84.521171
0F079D27-D2F7-47EF-8765-AFC5BE5BD8BC,2023-08-10,THU,17,1 - CLEAR,5XX E KING DR,39.135731,-84.499525
0F0A2ED3-234D-43C2-89E7-4B250BAC5750,2023-03-12,SUN,18,1 - CLEAR,9XX SUIRE AV,39.108881,-84.581661
0F0C288E-3FDB-46D8-8CFF-E60C2AD7F1A9,2023-08-13,SUN,16,1 - CLEAR,41XX 31ST AV,39.154236,-84.437499
0F135985-059C-40D2-9D7B-B40B2B37FAD5,2023-04-03,MON,10,4 - RAIN,2XX W MITCHELL AV,39.163729,-84.511153
0F16829D-E16F-497D-80D1-0DA575D287F5,2023-07-07,FRI,9,1 - CLEAR,S I75 AT 2-4 MM,39.126321,-84.533931
0F1CF7A2-4FA0-4DEF-A9B3-DBD4BD189174,2023-05-01,MON,8,2 - CLOUDY,N I71 AT 4-7 MM,39.143316,-84.479423
0F2055DB-3C7C-41A3-9E7B-BDEF9F464A31,2023-01-06,FRI,20,1 - CLEAR,4XX ELBERON AV,39.099411,-84.566541
0F20D717-A86B-40EC-884E-9E78F0B2F213,2023-03-17,FRI,18,1 - CLEAR,4XX READING RD,39.108251,-84.508631
0F276480-ACA3-4666-9046-ACFF8D12CCF6,2023-12-09,FRI,11,1 - CLEAR,2XX E LIBERTY ST,39.112221,-84.510451
0F2C9807-14FD-4392-9D08-6A4FD97D8E24,2023-10-03,TUE,7,1 - CLEAR,10XX LUDLOW AV,39.137772,-84.422572
0F3076F5-3F24-4154-981C-91C170E8FF7A,2023-01-14,SAT,12,1 - CLEAR,50XX WINTON RD,39.185161,-84.523541
0F311754-95FF-4233-B67B-87EF5A697785,2023-09-11,MON,17,1 - CLEAR,XX E CHARLTON ST,39.130075,-84.508889
0F32D77B-AFC7-475B-9A1D-42339B2EC4BA,2023-05-21,SUN,13,1 - CLEAR,23XX DANA AV,39.138197,-84.451509
0F3BCE61-EBC2-4323-BC5B-6CDBD68C92DD,2023-04-21,FRI,21,4 - RAIN,75XX RIVER RD,39.130701,-84.706645
0F42FB43-8692-437B-B6A1-A3B9AD93ED16,2023-02-21,TUE,10,1 - CLEAR,37XX IONA AV,39.184743,-84.409289
0F454C47-0E58-43FD-A668-0E8A9D22AB54,2023-03-23,THU,20,1 - CLEAR,39XX VINE ST,39.158585,-84.504401
0F46EA87-B5E3-4C6F-8FCC-ED4FAD66BDB4,2023-11-25,SAT,22,1 - CLEAR,27XX JEFFERSON AV,39.134831,-84.510921
0F496511-3DFC-472E-917F-D59EAC10A4FA,2023-07-11,TUE,15,1 - CLEAR,8XX W 6TH ST,39.098487,-84.521941
0F55D536-95EC-4B23-ABAA-B7B41AEA2300,2023-10-22,SUN,3,1 - CLEAR,1XX WOOLPER AV,39.149164,-84.510857
0F583F95-F4AB-46E4-AAA1-281657DBE018,2023-12-06,WED,13,1 - CLEAR,17XX QUEEN CITY AV,39.125807,-84.554256
0F60AFC2-916E-4350-80BA-313DCA71D79F,2023-11-27,MON,12,1 - CLEAR,14XX YARMOUTH AV,39.173253,-84.474713
0F6339D8-AAD8-4211-93EC-F29D784ECB37,2023-11-17,FRI,17,4 - RAIN,42XX READING RD,39.160021,-84.473601
0F65ADC6-3009-4F21-A855-9734D111096A,2023-03-27,MON,10,1 - CLEAR,50XX RED BANK EX,39.164462,-84.406471
0F66802D-3321-4571-92EB-7A20F93F00F7,2023-05-17,WED,20,1 - CLEAR,2XX CALHOUN ST,39.128328,-84.516088
0F6732E0-790C-4989-B7AD-8685080D5EC3,2023-08-27,SAT,14,1 - CLEAR,27XX MADISON RD,39.145826,-84.442017
0F6863FA-8D19-4A91-AF32-821B0D0924A8,2023-08-16,WED,11,1 - CLEAR,32XX VINE ST,39.138825,-84.509353
0F687BD2-447C-4642-82C6-600EFF9FAF5C,2023-09-29,FRI,15,1 - CLEAR,S I71 AT 1-7 MM,39.106051,-84.503588
0F688F8A-8261-42A3-87C0-4789123468E3,2023-10-05,THU,20,1 - CLEAR,21XX READING RD,39.191211,-84.461289
0F68C4CC-0C83-48B9-AC47-8326E2DD4F14,2023-07-10,MON,14,1 - CLEAR,XX DE CAMP AVE,39.207731,-84.470861
0F6ED587-0222-4268-8259-7BE33E31773B,2023-09-11,MON,23,1 - CLEAR,76XX GREENLAND PL,39.200961,-84.460787
0F6F4860-AA29-4527-8607-FCAA21736CA5,2023-07-16,SUN,21,2 - CLOUDY,1XX BROADWAY ST,39.098921,-84.504881
0F6F7B3A-FB71-4278-A818-BD189ACCEA4E,2023-09-15,FRI,15,1 - CLEAR,38XX WOODFORD RD,39.180022,-84.407667
0F7B100D-AF44-40CC-B0BC-FA53C69B478C,2023-05-13,SAT,20,1 - CLEAR,X E SEYMOUR AV,39.195301,-84.479251
0F8037C0-DEAC-400F-87FD-8C87D90A8D52,2023-07-07,FRI,15,1 - CLEAR,6XX LOWELL AV,39.141338,-84.528721
0F85D6AB-0297-4AD6-AA30-08710BB090B7,2023-12-20,WED,6,2 - CLOUDY,25XX STANTON AV,39.127531,-84.491465
0F9302FD-8FEB-406D-81C8-5557BA3F7638,2023-07-19,WED,18,1 - CLEAR,18XX COLUMBIA PY,39.119804,-84.481706
0F93626E-B33F-43EF-93EC-3640FFE3A0DF,2023-12-31,SUN,14,4 - RAIN,39XX VINE ST,39.15979,-84.50428
0F93836F-1FFD-4C2E-B439-4FFADE6C5721,2023-04-30,SUN,22,2 - CLOUDY,S I75 AT 10-4 MM,39.202071,-84.467874
0F969D80-953A-4EE7-A765-F74E7454662F,2023-06-15,THU,4,1 - CLEAR,52XX VIVIAN PL,39.184551,-84.515591
0F9CD27D-DF9A-4CE6-BC27-50956DAE0AF7,2023-06-28,WED,16,"3 - FOG, SMOG, SMOKE",48XX RED BANK RD,39.160500999999996,-84.403101
0FA5E566-533A-494C-A791-10251F927E79,2023-12-19,TUE,16,1 - CLEAR,16XX QUEEN CITY AV,39.126839,-84.552041
0FA77DE4-370F-40A4-8017-2B87810505B1,2023-04-15,SAT,17,1 - CLEAR,64XX HAMILTON AV,39.208561,-84.548425
0FAB9367-6868-4061-959C-1B195D5C8236,2023-08-20,SAT,19,1 - CLEAR,N I75 AT 3-1 MM,39.134604,-84.533697
0FABD2A9-FDDD-4DA2-8A3B-F69D5722E650,2023-05-05,FRI,9,1 - CLEAR,15XX GROESBECK RD,39.195413,-84.544041000000007
0FACFA4C-BF50-4682-ABBC-712ADA5A0C9C,2023-11-11,SAT,14,1 - CLEAR,6XX PROSPECT PL,39.1425,-84.49379
0FB0A58B-3BCE-41C9-81FB-606E474FAFCB,2023-12-12,TUE,13,1 - CLEAR,10XX RACE ST,39.106851,-84.515951
0FB93304-F7DB-4DB6-BBE2-0B30D29CDDB0,2023-03-30,THU,11,1 - CLEAR,1XX E MCMILLAN ST,39.126552,-84.507254
0FBD17F3-7D96-4EAF-98FD-100F83E44ACB,2023-11-05,SAT,13,1 - CLEAR,2XX W 73RD ST,39.19805,-84.48415
0FC81ABD-E3B3-467C-B76A-DF5DB786B7E2,2023-11-14,TUE,17,1 - CLEAR,31XX LINWOOD AV,39.158899,-84.423261
0FC9FF87-FFA5-4D0A-828F-2F054BB31FEF,2023-10-12,THU,14,1 - CLEAR,3XX ELM ST,39.099441,-84.514631
0FD49680-33CA-4F0B-9C31-1B382BD21E90,2023-05-12,FRI,9,4 - RAIN,46XX HAMILTON AV,39.153676,-84.536206
0FD58C87-4A9A-41CE-B4AD-92CB7B976CDB,2023-01-02,SAT,14,4 - RAIN,77XX READING RD,39.203981,-84.454601
0FDABE8B-0E75-4FD6-A740-01F75B2B5B83,2023-03-24,FRI,14,4 - RAIN,7XX READING RD,39.110392,-84.504471
0FDCC0EE-01DF-46AF-8E00-2266086C1373,2023-01-22,SUN,8,6 - SNOW,22XX MONTANA AV,39.157561,-84.567061
0FDDA058-FA3B-4135-B129-A8A36979AD36,2023-04-25,TUE,9,2 - CLOUDY,7XX W KING DR,39.140513,-84.529342
0FE63D0F-5F36-4332-A24E-16A870831844,2023-08-30,WED,11,1 - CLEAR,N I75 AT 3-2 MM,39.117819,-84.534892
0FEAC8DD-3F92-4CDE-853C-71B21AC038E9,2023-06-23,FRI,3,4 - RAIN,S I75 AT 7-9 MM,39.153297,-84.485497
0FEE0E45-B2A8-4309-9781-3C06DFE578D5,2023-09-02,SAT,10,1 - CLEAR,22XX WESTWOOD NORTHERN BV,39.145633,-84.568011
0FF087C7-24F5-4AE6-A13F-893834B40C27,2023-02-13,MON,15,1 - CLEAR,53XX HAMILTON AV,39.187541,-84.546311
0FF45B4E-744B-45C6-9D4F-3192949A0322,2023-09-14,THU,18,1 - CLEAR,39XX BOUDINOT AV,39.163188,-84.601726
0FF74FFC-58C6-4A7F-8097-9634771DF2A9,2023-06-09,FRI,23,1 - CLEAR,32XX WHITFIELD AV,39.140971,-84.523481
0FFA5DEA-024B-44A5-926A-B554AAB65569,2023-11-17,FRI,12,4 - RAIN,18XX RACE ST,39.112781,-84.518591
0FFAD938-533C-41AD-B7A0-91288E0D0D23,2023-10-26,THU,7,1 - CLEAR,15XX WEST FORK RD,39.163601,-84.554721
1001BA9A-0282-4439-A1C2-886D50A95975,2023-12-31,SUN,16,4 - RAIN,58XX HAMILTON AV,39.197651,-84.545951
10075E1E-664A-4544-9160-4C3EA3762CB6,2023-09-20,WED,15,1 - CLEAR,S I75 AT 0.4 MM,39.198552,-84.476599
10087EF0-C8BB-4390-9687-DBD528248340,2023-10-22,SUN,10,2 - CLOUDY,15XX CREST HILL AV,39.204041,-84.461081
100BCA37-3311-4262-B7BF-C31EB7915F71,2023-04-07,FRI,11,1 - CLEAR,6XX E KING DR,39.135402,-84.507664
100FEF50-5114-422F-A299-95CA0946F487,2023-06-16,FRI,16,1 - CLEAR,4XX KINGS RUN DR,39.177401,-84.510191
1010EC47-913C-432E-B6D5-11193FE2B3A9,2023-09-22,FRI,17,1 - CLEAR,XX E MCMICKEN AV,39.113851,-84.514437
